"Reef.ID","Reef.Name","Ocean","Country","State.Province.Island","City.Town","Year","Date","Depth","Organism.Code","S1","S2","S3","S4","Errors.","Average_bleaching","ClimSST","Temperature_Kelvin","Temperature_Mean","Temperature_Minimum","Temperature_Maximum","Temperature_Kelvin_Standard_Deviation","Windspeed","SSTA","SSTA_Standard_Deviation","SSTA_Mean","SSTA_Minimum","SSTA_Maximum","SSTA_Frequency","SSTA_Frequency_Standard_Deviation","SSTA_FrequencyMax","SSTA_FrequencyMean","SSTA_DHW","SSTA_DHW_Standard_Deviation","SSTA_DHWMax","SSTA_DHWMean","TSA","TSA_Standard_Deviation","TSA_Minimum","TSA_Maximum","TSA_Mean","TSA_Frequency","TSA_Frequency_Standard_Deviation","TSA_FrequencyMax","TSA_FrequencyMean","TSA_DHW","TSA_DHW_Standard_Deviation","TSA_DHWMax","TSA_DHWMean","Region","Diversity","rate_of_SST_change","Longitude.Degrees","Latitude.Degrees","UVindex","Sea.surface.height","Salinity","Precipitation","co2","Coral_bleaching"
"103.10.28.1E.10.50.46.1N","Koh Mano (Minor)","Indian","Cambodia","Koh Kong","","2003","19-Feb-03",4.5,"Bleaching (% of population)",0,0,0,0,FALSE,0,302.93,301.6,302.36,299.17,307.54,1.2,3,-0.31,0.97,0,-3.31,4.21,2,6.92,31,8,2.28,4.11,19.88,2.75,-2.09,1.2,-4.51,3.84,-1.32,0,2.05,9,1,0,1.69,14.56,0.59,"ERG050",417,0.020555555,103.1744722,10.84613889,11.329084,0.938786268,33.66935,1136.450195,0.000374484,"Not Bleached"
"103.11.35.5E.10.49.32N","Koh Mano (south)","Indian","Cambodia","Koh Kong","","2003","28-Feb-03",4.5,"Bleaching (% of population)",0,0,0,0,FALSE,0,303.16,303.02,302.35,298.29,307.73,1.16,3,0.85,0.92,0,-3.53,4.05,1,6.33,31,6,1.08,3.74,22.86,2.35,-0.65,1.16,-5.38,4.05,-1.31,0,2.04,10,1,0,1.8,17.01,0.52,"ERG050",417,0.020555555,103.1931944,10.82555556,11.095422,0.966815829,34.419044,1041.634277,0.000374484,"Not Bleached"
"103.11.79.5E.10.48.2.7N","Koh Ta Team","Indian","Cambodia","Koh Kong","","2003","24-Feb-03",5,"Bleaching (% of population)",0,0,0,0,FALSE,0,303.04,301.49,302.42,299.17,307.12,1.23,3,-0.53,1,0,-3.17,3.69,3,7.51,34,8,1.26,4.42,22.67,3.02,-2.28,1.23,-4.59,3.34,-1.34,0,1.8,8,1,0,1.62,13.76,0.52,"ERG050",417,0.020555555,103.1965833,10.80075,10.887234,0.904423058,34.110123,1113.650024,0.000374484,"Not Bleached"
"103.4.16.8E.11.3.36.2N","Koh Krosa Krao","Indian","Cambodia","Koh Kong","","2003","25-Feb-03",6,"Bleaching (% of population)",0,0,0,0,FALSE,0,302.88,301.86,302.39,298.95,307.21,1.13,3,-0.08,0.91,0,-3.45,3.56,6,5.4,22,6,7.84,3.82,25.57,2.26,-1.83,1.13,-4.73,3.51,-1.29,0,1.89,8,1,0,1.45,10.94,0.41,"ERG050",417,0.019065656,103.0713333,11.06005556,12.26342,0.038204942,35.34318,1170.132446,0.000374484,"Not Bleached"
"103.4.63.9E.11.3.58.3N","Koh Krosa Kandal","Indian","Cambodia","Koh Kong","","2003","27-Feb-03",3.2,"Bleaching (% of population)",0,0,0,0,FALSE,0,262.15,303.1,302.424,299.032,306.942,1.146,3,0.93,0.932,0,-3.264,3.38,5.2,5.898,27.2,6.4,6.152,4.108,25.366,2.394,-0.612,1.146,-4.672,3.224,-1.278,0,2.196,9.8,1,0,1.692,15.038,0.488,"ERG050",417,0.019065656,103.0773056,11.06619444,14.763814,0.038204942,35.116528,1080.333374,0.000374484,"Not Bleached"
"103.5.55.5E.10.53.48.5N","Koh Smach","Indian","Cambodia","Koh Kong","","2003","18-Feb-03",3,"Bleaching (% of population)",0,0,0,0,FALSE,0,302.5,302.41,302.29,298.97,305.92,1.12,3,0.82,0.87,0,-3.44,2.73,3,5.89,31,6,3.75,3.56,20.74,2.09,-1.25,1.12,-4.69,2.25,-1.35,0,1.49,7,0,0,1.03,9.86,0.26,"ERG050",417,0.020555555,103.09875,10.89680556,12.290153,1.016781,33.681057,1118.533691,0.000374484,"Not Bleached"
"12.06.24.8S96.52.15.1E","100th","Indian","Australia","Cocos (Keeling) Islands","","2003","23-Apr-03",3,"Bleaching (% of population)",0,0,0,0,FALSE,0,300.75,299.91,300.34,296.61,306.07,1.12,9,-1.27,0.81,0,-2.94,4.66,3,4.97,22,4,0,2.82,23.38,1.62,-1.55,1.12,-4.84,4.61,-1.11,0,2.37,12,1,0,1.75,21.67,0.5,"ERG106",112,-0.020833333,96.87086111,-12.10688889,12.628503,0.57948273,34.539276,1151.96521,0.00037515,"Not Bleached"
"60.56.7.4W.13.43.13.8N","Maria Islands Nature Reserve","Atlantic","St Lucia","","Vieux Fort","2003","18-Mar-03",3,"Bleaching (% of population)",0,0,0,0,FALSE,0,299.95,299.17,300.46,296.7,304.32,1.12,6,-0.42,0.78,0,-3.66,2.68,1,5.39,25,4,0,2.68,15.56,1.45,-2.71,1.12,-5.17,2.44,-1.41,1,1.64,7,1,0,1.2,9.29,0.38,"ERG138",59,0.030101009,-60.93538889,13.7205,14.798482,0.2540302,35.66563,644.5617676,0.000375312,"Not Bleached"
"60.9555W.14.1015N","Le Sport Reef","Atlantic","St Lucia","","Gros-Islet","2003","20-Feb-03",3,"Bleaching (% of population)",0,0,0,0,FALSE,0,299.62,299.26,300.44,296.97,305.05,1.13,9,-0.02,0.78,0,-3.22,3.27,1,4.81,26,3,0,2.52,16.19,1.28,-2.61,1.13,-4.9,3.17,-1.42,1,1.41,6,0,0,0.99,7.44,0.31,"ERG138",59,0.028560605,-60.9555,14.1015,12.76867,0.2822612,35.792015,644.5097046,0.000374866,"Not Bleached"
"61.0035W.13.7540N","Kay Ken (Laborie)","Atlantic","St Lucia","","Laborie","2003","11-Mar-03",2,"Bleaching (% of population)",0,0,0,0,FALSE,0,262.15,299.4525,300.5025,296.67,304.3175,1.1125,8,-0.0875,0.7725,0,-3.6925,2.955,0.75,5.23,26.25,3.5,0,2.535,17.5925,1.3275,-2.4475,1.1125,-5.2275,2.4075,-1.3925,0.25,1.5375,7.75,0.5,0,1.0775,9.7825,0.34,"ERG138",59,0.031136363,-61.0035,13.754,11.3564005,0.28260255,35.68831,570.6140137,0.000375312,"Not Bleached"
"61.0055W.13.7515N","Flat Land (Laborie)","Atlantic","St Lucia","","Laborie","2003","25-Mar-03",2,"Bleaching (% of population)",0,0,0,0,FALSE,0,262.15,299.88,300.5025,296.67,304.3175,1.1125,5,0.16,0.7725,0,-3.6925,2.955,0.75,5.23,26.25,3.5,0,2.535,17.5925,1.3275,-2.0225,1.1125,-5.2275,2.4075,-1.3925,0.25,1.5375,7.75,0.5,0,1.0775,9.7825,0.34,"ERG138",59,0.031136363,-61.0055,13.7515,12.699836,0.27406794,35.68831,753.9418335,0.000375312,"Not Bleached"
"61.0755W.13.8100N","Coral Gardens","Atlantic","St Lucia","","Soufriere","2003","27-Feb-03",3,"Bleaching (% of population)",0,0,0,0,FALSE,0,262.15,299.5825,300.61,297.12,303.9725,1.0875,8,0.03,0.725,0,-3.3875,2.43,0,4.6925,24.25,2.75,0,2.405,17.4775,1.08,-2.435,1.0875,-4.8875,1.945,-1.395,0,1.3575,6.5,0,0,0.8875,8.225,0.2625,"ERG138",59,0.031136363,-61.0755,13.81,12.83588,0.27063417,35.77443,732.8015137,0.000374517,"Not Bleached"
"61.0755W.13.8100N","Coral Gardens","Atlantic","St Lucia","","Soufriere","2003","27-Feb-03",10,"Bleaching (% of population)",0,0,0,0,FALSE,0,262.15,299.5825,300.61,297.12,303.9725,1.0875,8,0.03,0.725,0,-3.3875,2.43,0,4.6925,24.25,2.75,0,2.405,17.4775,1.08,-2.435,1.0875,-4.8875,1.945,-1.395,0,1.3575,6.5,0,0,0.8875,8.225,0.2625,"ERG138",59,0.031136363,-61.0755,13.81,10.135718,0.27063417,35.77443,732.8015137,0.000374517,"Not Bleached"
"61.08011W.13.8600N","Turtle Reef","Atlantic","St Lucia","Soufriere","","2003","13-Mar-03",10,"Bleaching (% of population)",0,0,0,0,FALSE,0,300.09,299.59,300.65,297.51,303.98,1.07,6,-0.13,0.69,0,-3.29,2.33,0,4.17,21,2,0,2.2,15.45,0.94,-2.46,1.07,-4.53,1.92,-1.39,0,1.24,5,0,0,0.8,6.48,0.24,"ERG138",59,0.031136363,-61.08,13.86,11.617718,0.2631415,35.68831,538.6877441,0.000375312,"Not Bleached"
"61.4.80W.13.51.84N","Anse Chastanet Reef","Atlantic","St Lucia","","Soufriere Marine Management Area","2003","5-Mar-03",3,"Bleaching (% of population)",0,0,0,0,FALSE,0,300.01,299.35,300.65,297.51,303.98,1.07,8,-0.29,0.69,0,-3.29,2.33,0,4.17,21,2,0,2.2,15.45,0.94,-2.7,1.07,-4.53,1.92,-1.39,0,1.24,5,0,0,0.8,6.48,0.24,"ERG138",59,0.031136363,-61.08,13.864,11.136862,0.26877826,35.68831,710.7897949,0.000375312,"Not Bleached"
"61.4.80W.13.51.84N","Anse Chastanet Reef","Atlantic","St Lucia","","Soufriere Marine Management Area","2003","5-Mar-03",10,"Bleaching (% of population)",0,0,0,0,FALSE,0,300.01,299.35,300.65,297.51,303.98,1.07,8,-0.29,0.69,0,-3.29,2.33,0,4.17,21,2,0,2.2,15.45,0.94,-2.7,1.07,-4.53,1.92,-1.39,0,1.24,5,0,0,0.8,6.48,0.24,"ERG138",59,0.031136363,-61.08,13.864,12.553432,0.26877826,35.68831,710.7897949,0.000375312,"Not Bleached"
"63.24.47E.19.40.06N","Passe Armand","Indian","Mauritius","Rodrigues","Pt. Monier","2003","7-Jun-03",12,"Bleaching (% of population)",0,0,0,0,FALSE,0,262.15,298.3125,298.37,294.2325,303.4825,1.785,4,0.2425,0.7675,0,-3.71,3.3375,6.5,5.2725,26,4,3.4325,2.825,16.335,1.535,-2.3075,1.785,-6.385,2.85,-2.24,0.75,2.0375,8.75,1,0,1.5125,12.8125,0.43,"ERG018",311,0.033686868,63.41305556,-19.66833333,10.263277,0.7880626,34.923653,743.1827393,0.000373757,"Not Bleached"
"63.26.235E.19.39.662S","Patte Cappor","Indian","Mauritius","Rodrigues","Port Mathurin","2003","8-Jun-03",6,"Bleaching (% of population)",0,0,0,0,FALSE,0,297,298.27,298.36,294.27,303.48,1.78,4,0.19,0.77,0,-3.96,3.13,5,4.97,25,4,3.31,2.7,15.47,1.42,-2.32,1.78,-6.31,2.88,-2.22,2,1.92,8,1,0,1.51,12.84,0.41,"ERG018",311,0.033686868,63.43725,-19.66102778,12.054255,0.8111247,34.923653,690.2689209,0.000373757,"Not Bleached"
"68.53.42W.12.05.16N","Curacao Sea Aquarium House Reef, Plot A #1","Atlantic","Netherlands Antilles","Curacao","Bapor Kibra","2003","23-Jan-03",4,"Bleaching (% of population)",0,0,0,0,FALSE,0,262.15,299.63,300.085,296.815,303.7175,1.1525,7,0.585,0.745,0,-2.6825,2.56,0.25,4.505,21,3.75,0,2.26,15.5325,1.2875,-1.945,1.1525,-4.7575,2.1325,-1.48,0,1.13,5.5,0,0,0.8,6.62,0.2375,"ERG137",52,0.024999999,-68.89708333,12.08322222,13.256976,0.21470663,36.045364,833.9403687,0.000373505,"Not Bleached"
"81.10.59E.8.44.2N","Coral Island","Indian","Sri Lanka","Eastern","Nilaveli","2003","25-Sep-03",2.5,"Bleaching (% of population)",0,0,0,0,FALSE,0,301.86,302.1,301.48,297.07,306.67,1.3,3,0.13,0.94,0,-4.93,3.88,7,5.02,26,7,4.21,2.79,14.49,2.37,-0.95,1.3,-5.98,3.61,-1.56,0,0.95,4,0,0,0.83,5.4,0.31,"ERG025",241,0.017348484,81.1765,8.736666667,10.722549,0.5143394,34.67159,1160.988892,0.00037693,"Not Bleached"
"81.10.59E.8.44.2N","Coral Island","Indian","Sri Lanka","Eastern","Nilaveli","2003","25-Sep-03",3,"Bleaching (% of population)",0,0,0,0,FALSE,0,301.86,302.1,301.48,297.07,306.67,1.3,3,0.13,0.94,0,-4.93,3.88,7,5.02,26,7,4.21,2.79,14.49,2.37,-0.95,1.3,-5.98,3.61,-1.56,0,0.95,4,0,0,0.83,5.4,0.31,"ERG025",241,0.017348484,81.1765,8.736666667,7.0910397,0.5143394,34.67159,1160.988892,0.00037693,"Not Bleached"
"81.12.197E.8.43.238N","Pigeon Island","Indian","Sri Lanka","Eastern","Nilaveli","2003","25-Sep-03",3.5,"Bleaching (% of population)",0,0,0,0,FALSE,0,301.97,302.01,301.55,297.07,306.67,1.27,3,-0.08,0.86,0,-5.06,3.8,5,4.47,22,6,2.45,2.45,12.61,2.01,-1.16,1.27,-6.09,3.5,-1.6,0,0.88,3,0,0,0.77,5.42,0.26,"ERG025",241,0.017348484,81.20327778,8.720638889,11.955411,0.5143394,34.67159,1160.988892,0.00037693,"Not Bleached"
"85.55.286W.16.28.725N","Wonderful Reef","Atlantic","Honduras","Bay Islands","Guanaja","2003","23-Apr-03",10,"Bleaching (% of population)",0,0,0,0,FALSE,0,300.99,300.54,300.96,297.82,304.81,1.19,6,-0.16,0.77,0,-3.04,2.75,3,4.97,27,4,0,2.54,20.76,1.54,-1.82,1.19,-4.53,2.45,-1.39,1,1.81,9,1,0,1.39,13.51,0.4,"ERG136",60,0.023686868,-85.92144444,16.47875,6.6419983,0.1995858,36.085297,728.3411255,0.000376032,"Not Bleached"
"96.53.502E.12.06.225S","Prison Gardens","Indian","Australia","Cocos (Keeling) Islands","","2003","20-May-03",10,"Bleaching (% of population)",0,0,0,0,FALSE,0,300.39,301.17,300.34,296.61,306.07,1.12,6,0.28,0.81,0,-2.94,4.66,3,4.97,22,4,0,2.82,23.38,1.62,-0.29,1.12,-4.84,4.61,-1.11,0,2.37,12,1,0,1.75,21.67,0.5,"ERG106",112,-0.020833333,96.89169444,-12.10375,11.09477,0.59101754,34.28119,1121.927002,0.000373917,"Not Bleached"
"059.38W.13.11N","Folkestone Marine Park","Atlantic","Barbados","St James","Holetown","2005","16-Jan-05",4,"Bleaching (% of population)",2,5,0,0,TRUE,1.75,299.48,300.82,300.48,297.38,304.44,1.06,7,1.09,0.76,0,-2.81,2.62,1,5.51,26,3,0,2.68,16.47,1.19,-1.01,1.06,-4.44,2.6,-1.34,0,1.2,6,0,0,0.8,7.05,0.19,"ERG138",59,0.028762626,-59.641,13.19119444,9.136725,0.24016319,35.458916,1027.0134,0.000377169,"Bleached"
"100.20.32.4E.0.59.32.6S","Pisang Gadang Island","Pacific","Indonesia","Sumatra Barat","Padang","2005","25-Dec-05",3,"Bleaching (% of population)",0,0,0,0,FALSE,0,262.15,302.895,302.935,297.86,306.3675,1.0075,1,0.1075,0.935,0,-4.545,3.78,10.75,5.75,26.5,5.25,7.11,3.855,26.9375,1.8725,-0.6275,1.0075,-5.66,2.835,-0.58,1.5,2.59,14,1,0,1.7425,17.5125,0.4825,"ERG031",340,0.008914141,100.3423333,-0.992388889,9.994207,0.7976436,34.67189,1364.1241,0.000380196,"Not Bleached"
"100.59.10.76E.12.57.45.55N","Leum Island (Ko Luam)","Indian","Thailand","Cholburi","Pattaya","2003","1-Nov-03",3.9,"Bleaching (% of population)",0,1,1,0,FALSE,0.5,301.36,302.94,302.26,297.31,306.77,1.43,1,0.64,0.98,0,-3.27,3.56,7,5.95,29,6,0,4.13,27.26,2.57,-0.84,1.43,-6.46,2.99,-1.51,1,2.09,13,1,0,1.76,16.39,0.55,"ERG050",417,0.01570707,100.653,12.96266667,11.839623,1.2003238,33.37921,1088.6622,0.000373158,"Bleached"
"102.17.0E.11.56.43N","Hin Luk Bat","Pacific","Thailand","Trat","Koh Chang","2006","13-Nov-06",12,"Bleaching (% of population)",1,0,0,0,FALSE,0.25,301.75,303.5,302.22,299.11,306.15,1.12,2,1.14,0.88,0,-2.44,3.05,3,5.49,26,6,3.34,3.73,27.08,2.29,-0.08,1.12,-4.46,2.56,-1.35,0,1.46,6,0,0,1.12,7.8,0.32,"ERG050",417,0.018358585,102.2833333,11.94527778,9.664398,1.1180431,33.35044,1004.0246,0.000380057,"Bleached"
"102.17.15E.11.56.42N","Hin Luk Bat","Pacific","Thailand","Koh Chang, Trat","Hin Luk Bat","2006","18-Mar-06",10,"Bleaching (% of population)",0,0,0,0,FALSE,0,303.44,303.46,302.22,299.11,306.15,1.12,2,0.96,0.88,0,-2.44,3.05,13,5.49,26,6,1.73,3.73,27.08,2.29,-0.12,1.12,-4.46,2.56,-1.35,4,1.46,6,0,0,1.12,7.8,0.32,"ERG050",417,0.018358585,102.2875,11.945,12.23039,0.8801151,32.959194,1209.4503,0.00038096,"Not Bleached"
"102.22.711E.11.48.310N","Koh Tien/Koh Thain West","Pacific","Thailand","Trat","Koh Chang","2007","15-Jun-07",5,"Bleaching (% of population)",0,0,0,0,FALSE,0,301.93,304.06,302.27,297.95,306.11,1.13,2,1.26,0.93,0,-3.86,3.23,8,6.15,28,7,1,3.71,23.53,2.42,0.53,1.13,-5.56,2.58,-1.24,0,1.92,7,1,0,1.53,12.32,0.51,"ERG050",417,0.018358585,102.3785278,11.80516667,12.229871,0.6951007,33.563877,1531.5476,0.000384598,"Not Bleached"
"102.22.711E.11.48.310N","Koh Tien/Koh Thain West","Pacific","Thailand","Trat","Koh Chang","2008","10-Jan-08",4.5,"Bleaching (% of population)",1,0,1,0,FALSE,0.5,301.59,301.71,302.27,297.95,306.11,1.13,4,0.41,0.93,0,-3.86,3.23,8,6.15,28,7,0,3.71,23.53,2.42,-1.81,1.13,-5.56,2.58,-1.24,0,1.92,7,1,0,1.53,12.32,0.51,"ERG050",417,0.018358585,102.3785278,11.80516667,8.298671,0.9295708,32.678352,1013.07947,0.000382271,"Bleached"
"102.23.0E.11.47.25N","Koh Mapring","Pacific","Thailand","Trat","Koh Chang","2006","28-Nov-06",4,"Bleaching (% of population)",1,1,1,0,FALSE,0.75,301.47,304.4,302.27,297.95,306.11,1.13,1,2.21,0.93,0,-3.86,3.23,9,6.15,28,7,3.96,3.71,23.53,2.42,0.88,1.13,-5.56,2.58,-1.24,3,1.92,7,1,0,1.53,12.32,0.51,"ERG050",417,0.018358585,102.3833333,11.79027778,9.07435,0.94931865,33.35044,1000.7492,0.000380057,"Bleached"
"102.23.20E.11.47.50N","Koh Kra","Pacific","Thailand","Trat","Koh Chang","2006","14-Nov-06",3.6,"Bleaching (% of population)",1,0,0,0,FALSE,0.25,301.77,303.81,302.27,297.95,306.11,1.13,2,1.4,0.93,0,-3.86,3.23,8,6.15,28,7,2.56,3.71,23.53,2.42,0.29,1.13,-5.56,2.58,-1.24,3,1.92,7,1,0,1.53,12.32,0.51,"ERG050",417,0.018358585,102.3888889,11.79722222,9.867067,0.9784451,33.35044,1129.9491,0.000380057,"Bleached"
"102.23.36E.11.47.2N","Koh Yak Lek","Pacific","Thailand","Trat","Koh Chang","2006","10-Nov-06",7,"Bleaching (% of population)",0,0,0,0,FALSE,0,301.77,303.93,302.26,298.7,305.94,1.11,3,1.57,0.92,0,-3.11,3.05,12,5.83,25,6,3.22,3.72,22.31,2.33,0.46,1.11,-4.76,2.47,-1.2,6,1.9,8,1,0,1.46,9.35,0.49,"ERG050",417,0.018358585,102.3933333,11.78388889,10.112539,1.0826159,33.35044,1155.1167,0.000380057,"Not Bleached"
"102.23.784E.11.47.244N","Koh Yak","Pacific","Thailand","Trat","Koh Chang","2007","15-Jun-07",4,"Bleaching (% of population)",0,0,0,0,FALSE,0,302,304.14,302.26,298.7,305.94,1.11,2,1.31,0.92,0,-3.11,3.05,9,5.83,25,6,2.18,3.72,22.31,2.33,0.67,1.11,-4.76,2.47,-1.2,0,1.9,8,1,0,1.46,9.35,0.49,"ERG050",417,0.018358585,102.3963889,11.78738889,12.229871,0.6951007,33.563877,1531.5476,0.000384598,"Not Bleached"
"102.24.173E.11.49.108N","Koh Thong Lang","Pacific","Thailand","Trat","Koh Chang","2007","14-Jun-07",3.5,"Bleaching (% of population)",5,5,5,5,FALSE,5,301.93,304.06,302.27,297.95,306.11,1.13,2,1.26,0.93,0,-3.86,3.23,8,6.15,28,7,1,3.71,23.53,2.42,0.53,1.13,-5.56,2.58,-1.24,0,1.92,7,1,0,1.53,12.32,0.51,"ERG050",417,0.018358585,102.4028889,11.81847222,12.813687,0.7263855,33.563877,1439.08,0.000384598,"Bleached"
"102.24.4E.11.49.13N","Koh Yak Yai","Pacific","Thailand","Trat","Koh Chang","2006","11-Dec-06",3.5,"Bleaching (% of population)",0,0,0,0,FALSE,0,301.29,303.51,302.27,297.95,306.11,1.13,3,1.62,0.93,0,-3.86,3.23,11,6.15,28,7,7.29,3.71,23.53,2.42,-0.01,1.13,-5.56,2.58,-1.24,3,1.92,7,1,0,1.53,12.32,0.51,"ERG050",417,0.018358585,102.4011111,11.82027778,9.294804,1.1319963,32.963886,1325.6699,0.000380811,"Not Bleached"
"102.24.9E.11.49.13N","Koh Thong Lang","Pacific","Thailand","Trat","Koh Chang","2006","10-Nov-06",4,"Bleaching (% of population)",0,0,0,0,FALSE,0,301.77,303.81,302.27,297.95,306.11,1.13,2,1.4,0.93,0,-3.86,3.23,8,6.15,28,7,2.56,3.71,23.53,2.42,0.29,1.13,-5.56,2.58,-1.24,3,1.92,7,1,0,1.53,12.32,0.51,"ERG050",417,0.018358585,102.4025,11.82027778,10.112539,1.0826159,33.35044,1155.1167,0.000380057,"Not Bleached"
"102.26.50E.11.49.23N","Koh Lom","Pacific","Thailand","Trat","Koh Chang","2006","27-Nov-06",4.3,"Bleaching (% of population)",0,0,0,0,FALSE,0,301.5,304.58,302.35,298.64,306.48,1.21,1,2.39,1.02,0,-3.48,3.1,7,6.28,28,8,6.35,4.1,26.89,2.88,0.97,1.21,-4.96,2.86,-1.25,1,2.11,11,1,1.06,1.78,19.1,0.58,"ERG050",417,0.018358585,102.4472222,11.82305556,9.044084,0.922788,33.35044,1058.7986,0.000380057,"Not Bleached"
"102.27.18.6E.11.53.3N","Ko Bai Dang","Pacific","Thailand","Koh Chang, Trat","Ko Bai Dang","2006","19-Mar-06",3,"Bleaching (% of population)",0,0,0,0,FALSE,0,303.59,302.73,302.36,298.3,306.5,1.21,2,-0.03,1.01,0,-3.41,2.92,14,6.45,29,7,1.06,4.16,26.99,2.74,-0.93,1.21,-5.35,2.83,-1.29,7,2.29,9,1,0,1.88,16.8,0.59,"ERG050",417,0.018358585,102.4551667,11.88416667,11.798802,0.97424436,32.959194,1287.1558,0.00038096,"Not Bleached"
"102.28.17E.11.54.4N","Hin Bai Dang","Pacific","Thailand","Trat","Koh Chang","2006","12-Nov-06",7,"Bleaching (% of population)",1,1,1,1,FALSE,1,301.65,303.66,302.36,298.3,306.5,1.21,2,1.37,1.01,0,-3.41,2.92,5,6.45,29,7,4.38,4.16,26.99,2.74,0,1.21,-5.35,2.83,-1.29,0,2.29,9,1,0,1.88,16.8,0.59,"ERG050",417,0.018358585,102.4713889,11.90111111,10.189796,1.1695722,33.35044,987.4922,0.000380057,"Bleached"
"102.32.40E.11.45.18N","Koh Kood","Pacific","Thailand","Trat","Koh Chang","2006","8-Dec-06",5.5,"Bleaching (% of population)",0,0,0,0,FALSE,0,301.45,304.1,302.42,297.92,306.76,1.22,3,2.26,1.03,0,-3.86,3.18,7,6.97,34,8,10.16,4.36,23.51,2.94,0.42,1.22,-5.75,3.07,-1.25,0,2.29,9,1,0,1.74,13.76,0.59,"ERG050",417,0.018358585,102.5444444,11.755,8.659998,1.1013241,32.963886,1189.3059,0.000382257,"Not Bleached"
"102.40.2.9E.5.56.28.4N","Pulau Susu Dara Besar","Pacific","Malaysia","Terengganu","Perhentian Islands","2003","20-May-03",6,"Bleaching (% of population)",0,0,2,2,FALSE,1,303.57,301.48,302.43,297.66,306.3,1.35,1,-2.23,0.93,0,-4.06,3.28,4,6.26,36,6,1.31,3.46,20.49,2.3,-2.24,1.35,-6.05,2.57,-1.28,0,2.14,10,1,0,1.47,12.86,0.5,"ERG049",503,0.015757575,102.6674722,5.941222222,11.708582,-0.03815957,34.705585,1290.0983,0.000375567,"Bleached"
"102.40.2.9E.5.56.28.4N","Pulau Susu Dara Besar","Pacific","Malaysia","Terengganu","Perhentian Islands","2003","20-May-03",7.6,"Bleaching (% of population)",1,0,1,1,FALSE,0.75,303.57,301.48,302.43,297.66,306.3,1.35,1,-2.23,0.93,0,-4.06,3.28,4,6.26,36,6,1.31,3.46,20.49,2.3,-2.24,1.35,-6.05,2.57,-1.28,0,2.14,10,1,0,1.47,12.86,0.5,"ERG049",503,0.015757575,102.6674722,5.941222222,12.534089,0.86880356,34.205578,1290.0983,0.000375567,"Bleached"
"102.42.508E.5.57.143N","Sea Bell","Pacific","Malaysia","Terengannu","Perhentian Island","2007","29-Sep-07",11.5,"Bleaching (% of population)",0,0,0,0,FALSE,0,302.18,302.68,302.42,297.66,306.3,1.36,2,-0.06,0.93,0,-4.13,3.72,12,6.26,30,6,7.48,3.65,23.89,2.35,-1.09,1.36,-6.1,2.52,-1.34,4,1.82,9,1,2.51,1.09,8.63,0.39,"ERG049",503,0.015757575,102.7084722,5.952388889,5.452359,0.6805842,33.987617,1289.3623,0.00038297,"Not Bleached"
"102.42.508E.5.57.143N","Sea Bell","Pacific","Malaysia","Terengannu","Perhentian Island","2007","30-Sep-07",6,"Bleaching (% of population)",0,0,0,0,FALSE,0,302.18,302.68,302.42,297.66,306.3,1.36,2,-0.06,0.93,0,-4.13,3.72,12,6.26,30,6,7.48,3.65,23.89,2.35,-1.09,1.36,-6.1,2.52,-1.34,4,1.82,9,1,2.51,1.09,8.63,0.39,"ERG049",503,0.015757575,102.7084722,5.952388889,13.444468,0.81824636,33.962013,1408.721,0.00038297,"Not Bleached"
"102.42.508E.5.57.143N","Sea Bell","Pacific","Malaysia","Terengannu","Perhentian Island","2008","30-May-08",6,"Bleaching (% of population)",2,2,0,2,FALSE,1.5,303.35,303.85,302.42,297.66,306.3,1.36,2,0.1,0.93,0,-4.13,3.72,11,6.26,30,6,0,3.65,23.89,2.35,0.08,1.36,-6.1,2.52,-1.34,4,1.82,9,1,0,1.09,8.63,0.39,"ERG049",503,0.015757575,102.7084722,5.952388889,9.899986,0.7608809,33.108253,1234.0905,0.000385063,"Bleached"
"102.42.508E.5.57.143N","Sea Bell","Pacific","Malaysia","Terengannu","Perhentian Island","2008","31-May-08",11.5,"Bleaching (% of population)",2,0,0,0,FALSE,0.5,303.35,303.85,302.42,297.66,306.3,1.36,2,0.1,0.93,0,-4.13,3.72,11,6.26,30,6,0,3.65,23.89,2.35,0.08,1.36,-6.1,2.52,-1.34,4,1.82,9,1,0,1.09,8.63,0.39,"ERG049",503,0.015757575,102.7084722,5.952388889,9.335953,0.9002623,34.200977,1421.9218,0.000385063,"Bleached"
"102.42.508E.5.57.143N","Sea Bell","Pacific","Malaysia","Terengannu","Perhentian Island","2008","5-Oct-08",5,"Bleaching (% of population)",0,1,1,0,FALSE,0.5,302.01,301.54,302.42,297.66,306.3,1.36,1,-1.14,0.93,0,-4.13,3.72,4,6.26,30,6,0,3.65,23.89,2.35,-2.23,1.36,-6.1,2.52,-1.34,0,1.82,9,1,0,1.09,8.63,0.39,"ERG049",503,0.015757575,102.7084722,5.952388889,13.098497,0.57176673,34.23606,1281.2352,0.000384824,"Bleached"
"102.43.23.4E.5.55.53.7N","Pulau Perhentian Kecil/D'Lagoon","Pacific","Malaysia","Terengganu","Pulau Perhentian","2003","8-Jun-03",6,"Bleaching (% of population)",1,0,0,1,FALSE,0.5,303.35,303.34,302.42,297.66,306.3,1.36,2,-0.35,0.93,0,-4.13,3.72,2,6.26,30,6,1.12,3.65,23.89,2.35,-0.43,1.36,-6.1,2.52,-1.34,0,1.82,9,1,0,1.09,8.63,0.39,"ERG049",503,0.015757575,102.7231667,5.931583333,8.603539,0.7394625,33.401855,1164.8086,0.00037582,"Bleached"
"102.43.23.4E.5.55.53.7N","Pulau Perhentian Kecil/D'Lagoon","Pacific","Malaysia","Terengganu","Pulau Perhentian","2003","8-Jun-03",10.3,"Bleaching (% of population)",0,1,1,0,FALSE,0.5,303.35,303.34,302.42,297.66,306.3,1.36,2,-0.35,0.93,0,-4.13,3.72,2,6.26,30,6,1.12,3.65,23.89,2.35,-0.43,1.36,-6.1,2.52,-1.34,0,1.82,9,1,0,1.09,8.63,0.39,"ERG049",503,0.015757575,102.7231667,5.931583333,11.828066,0.539018,35.03307,1164.8086,0.00037582,"Bleached"
"102.43.23.4E.5.55.53.7N","Pulau Perhentian Kecil/D'Lagoon","Pacific","Malaysia","Terengganu","Pulau Perhentian","2007","12-Apr-07",6,"Bleaching (% of population)",0,1,0,0,FALSE,0.25,303.77,304.15,302.42,297.66,306.3,1.36,2,0.92,0.93,0,-4.13,3.72,6,6.26,30,6,6.23,3.65,23.89,2.35,0.38,1.36,-6.1,2.52,-1.34,0,1.82,9,1,0,1.09,8.63,0.39,"ERG049",503,0.015757575,102.7231667,5.931583333,11.547915,0.6805842,33.861576,1161.6104,0.000383554,"Bleached"
"102.43.23.4E.5.55.53.7N","Pulau Perhentian Kecil/D'Lagoon","Pacific","Malaysia","Terengganu","Pulau Perhentian","2007","29-Sep-07",6,"Bleaching (% of population)",0,0,0,0,FALSE,0,302.18,302.68,302.42,297.66,306.3,1.36,2,-0.06,0.93,0,-4.13,3.72,12,6.26,30,6,7.48,3.65,23.89,2.35,-1.09,1.36,-6.1,2.52,-1.34,4,1.82,9,1,2.51,1.09,8.63,0.39,"ERG049",503,0.015757575,102.7231667,5.931583333,5.452359,0.6423766,34.25698,1289.3623,0.00038297,"Not Bleached"
"102.43.23.4E.5.55.53.7N","Pulau Perhentian Kecil/D'Lagoon","Pacific","Malaysia","Terengganu","Pulau Perhentian","2008","30-May-08",6,"Bleaching (% of population)",0,0,0,0,FALSE,0,303.35,303.85,302.42,297.66,306.3,1.36,2,0.1,0.93,0,-4.13,3.72,11,6.26,30,6,0,3.65,23.89,2.35,0.08,1.36,-6.1,2.52,-1.34,4,1.82,9,1,0,1.09,8.63,0.39,"ERG049",503,0.015757575,102.7231667,5.931583333,9.899986,0.8185321,33.724014,1234.0905,0.000385063,"Not Bleached"
"102.43.29.1E.5.55.16.7N","Batu Nisan","Pacific","Malaysia","Terengganu","Perhentian Island","2007","12-Apr-07",6,"Bleaching (% of population)",0,1,0,0,FALSE,0.25,303.77,304.15,302.42,297.66,306.3,1.36,2,0.92,0.93,0,-4.13,3.72,6,6.26,30,6,6.23,3.65,23.89,2.35,0.38,1.36,-6.1,2.52,-1.34,0,1.82,9,1,0,1.09,8.63,0.39,"ERG049",503,0.015757575,102.72475,5.921305556,11.547915,0.8208019,34.14191,1161.6104,0.000383554,"Bleached"
"102.43.29.1E.5.55.16.7N","Batu Nisan","Pacific","Malaysia","Terengganu","Perhentian Island","2007","30-Sep-07",6,"Bleaching (% of population)",0,0,0,0,FALSE,0,302.18,302.68,302.42,297.66,306.3,1.36,2,-0.06,0.93,0,-4.13,3.72,12,6.26,30,6,7.48,3.65,23.89,2.35,-1.09,1.36,-6.1,2.52,-1.34,4,1.82,9,1,2.51,1.09,8.63,0.39,"ERG049",503,0.015757575,102.72475,5.921305556,13.444468,0.80145216,34.162582,1408.721,0.00038297,"Not Bleached"
"102.43.29.1E.5.55.16.7N","Batu Nisan","Pacific","Malaysia","Terengganu","Perhentian Island","2008","31-May-08",5.1,"Bleaching (% of population)",0,0,0,0,FALSE,0,303.35,303.85,302.42,297.66,306.3,1.36,2,0.1,0.93,0,-4.13,3.72,11,6.26,30,6,0,3.65,23.89,2.35,0.08,1.36,-6.1,2.52,-1.34,4,1.82,9,1,0,1.09,8.63,0.39,"ERG049",503,0.015757575,102.72475,5.921305556,9.335953,0.7791262,33.358746,1421.9218,0.000385063,"Not Bleached"
"102.44.407E.5.54.208N","Coral View Reef","Pacific","Malaysia","Terengganu","Perhentian","2007","9-Jun-07",5,"Bleaching (% of population)",50,30,30,5,FALSE,28.75,303.19,303.93,302.4,298.01,305.6,1.34,2,0.33,0.92,0,-4.13,3.83,5,6.44,39,7,2.37,3.54,22.04,2.36,0.24,1.34,-5.67,1.9,-1.28,0,2.19,10,1,0,1.29,9.9,0.5,"ERG049",503,0.015757575,102.7401111,5.903472222,11.505789,0.3523798,34.14191,1354.6501,0.00038462,"Bleached"
"102.45.30.3E.5.55.23.7N","Tokong Burung","Pacific","Malaysia","Terengganu","Perhentian Islands","2003","12-May-03",3,"Bleaching (% of population)",1,2,2.5,2.5,FALSE,2,303.66,302.53,302.39,298.17,306.25,1.37,2,-1.15,0.93,0,-4.07,3.81,3,6.14,36,6,2.33,3.77,24.4,2.39,-1.2,1.37,-5.56,2.5,-1.34,0,2.2,12,1,0,1.36,9.67,0.51,"ERG049",503,0.015757575,102.7584167,5.92325,13.610738,0.8177022,34.435963,1432.984,0.000375567,"Bleached"
"102.45.30.3E.5.55.23.7N","Tokong Burung","Pacific","Malaysia","Terengganu","Perhentian Islands","2003","12-May-03",11,"Bleaching (% of population)",2.5,5,1,0,FALSE,2.125,303.66,302.53,302.39,298.17,306.25,1.37,2,-1.15,0.93,0,-4.07,3.81,3,6.14,36,6,2.33,3.77,24.4,2.39,-1.2,1.37,-5.56,2.5,-1.34,0,2.2,12,1,0,1.36,9.67,0.51,"ERG049",503,0.015757575,102.7584167,5.92325,12.278956,0.35636166,34.436184,1432.984,0.000375567,"Bleached"
"102.45.498E.5.55.414N","Tanjung Besi","Pacific","Malaysia","Terengganu","Perhentian","2008","27-Sep-08",5.7,"Bleaching (% of population)",1,0,1,0,TRUE,0.5,302.21,302.6,302.39,298.17,306.25,1.37,2,-0.18,0.93,0,-4.07,3.81,5,6.14,36,6,1.61,3.77,24.4,2.39,-1.14,1.37,-5.56,2.5,-1.34,0,2.2,12,1,0,1.36,9.67,0.51,"ERG049",503,0.015757575,102.7583056,5.923555556,13.069105,0.8341528,33.738796,1103.1466,0.000385464,"Bleached"
"102.59.59.4E.5.44.48.9N","Pulau Pinang Marine Park/Marine Park Centre Jetty","Pacific","Malaysia","Terengganu","Redang Island","2007","21-Apr-07",5.5,"Bleaching (% of population)",0.5,5,0.5,10,FALSE,4,303.61,303.39,302.22,297.7,306.01,1.34,2,0.19,0.89,0,-3.17,3.48,3,6.2,30,6,2.52,3.25,20.55,2.21,-0.22,1.34,-5.9,2.39,-1.38,0,1.74,8,1,0,1.15,8.53,0.38,"ERG049",503,0.015757575,102.9998333,5.746916667,13.350288,-0.020728953,34.985363,1275.0586,0.000383554,"Bleached"
"102.59.59.4E.5.44.48.9N","Pulau Pinang Marine Park/Marine Park Centre Jetty","Pacific","Malaysia","Terengganu","Redang Island","2007","1-Oct-07",5,"Bleaching (% of population)",0,0,0,0,FALSE,0,302.15,302.86,302.22,297.7,306.01,1.34,2,0.24,0.89,0,-3.17,3.48,6,6.2,30,6,2.55,3.25,20.55,2.21,-0.75,1.34,-5.9,2.39,-1.38,1,1.74,8,1,0,1.15,8.53,0.38,"ERG049",503,0.015757575,102.9998333,5.746916667,8.301992,-0.19903468,35.96182,1336.4944,0.000381693,"Not Bleached"
"102.59.59.4E.5.44.48.9N","Pulau Pinang Marine Park/Marine Park Centre Jetty","Pacific","Malaysia","Terengganu","Redang Island","2008","27-Jun-08",5,"Bleaching (% of population)",0,0,0,0,FALSE,0,302.77,300.92,302.22,297.7,306.01,1.34,2,-2.3,0.89,0,-3.17,3.48,8,6.2,30,6,0,3.25,20.55,2.21,-2.69,1.34,-5.9,2.39,-1.38,1,1.74,8,1,0,1.15,8.53,0.38,"ERG049",503,0.015757575,102.9998333,5.746916667,11.423211,-0.17494059,35.640785,1279.5814,0.000385335,"Not Bleached"
"103.0.37.3E.5.49.3.58N","Chagar Hutang East","Pacific","Malaysia","Terengganu","Redang Island","2008","27-Jun-08",10,"Bleaching (% of population)",0,0,0,0,FALSE,0,302.87,301.54,302.27,297.48,305.91,1.41,2,-1.8,0.93,0,-3.24,3.01,9,6.29,31,6,1.44,3.46,21.55,2.44,-2.2,1.41,-6.25,2.16,-1.46,0,2.04,10,1,0,1.32,11.77,0.43,"ERG049",503,0.01580808,103.0103611,5.817661111,11.462788,0.69603616,34.09261,1279.5814,0.000385335,"Not Bleached"
"103.01.41E.5.45.44N","Redang Kalong House Reef","Pacific","Malaysia","Terengganu","Pulau Redang","2003","25-Sep-03",5,"Bleaching (% of population)",0,0,0,0,FALSE,0,262.15,301.9,302.25625,297.7675,305.8875,1.36875,2,-0.74,0.9125,0,-3.4075,3.5975,3.625,6.22375,31,6.25,0,3.3475,20.425,2.32125,-1.76375,1.36875,-5.89,2.21625,-1.39875,0.375,1.95625,9.5,1,0,1.2325,9.90875,0.41875,"ERG049",503,0.01580808,103.0280556,5.762222222,7.806216,0.88505685,34.027664,1428.7645,0.000377947,"Not Bleached"
"103.01.41E.5.45.44N","Redang Kalong House Reef","Pacific","Malaysia","Terengganu","Pulau Redang","2003","25-Sep-03",10,"Bleaching (% of population)",0,0,0,0,FALSE,0,262.15,301.9,302.25625,297.7675,305.8875,1.36875,2,-0.74,0.9125,0,-3.4075,3.5975,3.625,6.22375,31,6.25,0,3.3475,20.425,2.32125,-1.76375,1.36875,-5.89,2.21625,-1.39875,0.375,1.95625,9.5,1,0,1.2325,9.90875,0.41875,"ERG049",503,0.01580808,103.0280556,5.762222222,7.5027437,0.88505685,34.027664,1428.7645,0.000377947,"Not Bleached"
"103.01.56.8E.05.45.59.3N","Pertigi Bay, Redang Island","Pacific","Malaysia","Terengganu","Kula Terengannu","2004","25-Sep-04",3,"Bleaching (% of population)",0,0,5,0,FALSE,1.25,302.31,301.98,302.22,297.63,305.7,1.4,1,-0.64,0.94,0,-3.29,4.27,0,6.05,31,7,0,3.42,22.11,2.48,-1.68,1.4,-6.02,2.03,-1.43,0,1.98,8,1,0,1.26,9.64,0.41,"ERG049",503,0.01580808,103.0324444,5.766472222,12.115764,0.9204012,34.063923,1308.9617,0.000377315,"Bleached"
"103.01.59.9E.05.46.28.1N","Tg Tengah Southside, Pasir Panjang, Redang Island","Pacific","Malaysia","Terengganu","Kula Terengannu","2004","23-Sep-04",3.2,"Bleaching (% of population)",0,0,0,0,FALSE,0,302.31,301.98,302.22,297.63,305.7,1.4,1,-0.64,0.94,0,-3.29,4.27,0,6.05,31,7,0,3.42,22.11,2.48,-1.68,1.4,-6.02,2.03,-1.43,0,1.98,8,1,0,1.26,9.64,0.41,"ERG049",503,0.01580808,103.0333056,5.774472222,10.009171,0.9116356,34.063923,1363.394,0.000377315,"Not Bleached"
"103.02.0.9E.5.46.33N","Coral Resort House Reef, Redang Island","Pacific","Malaysia","Terengganu","Kula Terengannu","2004","23-Sep-04",3,"Bleaching (% of population)",0,2,1,0,FALSE,0.75,302.31,301.98,302.22,297.63,305.7,1.4,1,-0.64,0.94,0,-3.29,4.27,0,6.05,31,7,0,3.42,22.11,2.48,-1.68,1.4,-6.02,2.03,-1.43,0,1.98,8,1,0,1.26,9.64,0.41,"ERG049",503,0.01580808,103.0335833,5.775833333,11.697351,0.9116356,34.063923,1363.394,0.000377315,"Bleached"
"103.02.02E.5.46.38N","Coral Redang House Reef North","Pacific","Malaysia","Terengganu","Kuala Terengganu","2003","18-Oct-03",6,"Bleaching (% of population)",0,0,0,0,FALSE,0,301.79,300.69,302.22,297.63,305.7,1.4,3,-1.75,0.94,0,-3.29,4.27,7,6.05,31,7,0,3.42,22.11,2.48,-2.97,1.4,-6.02,2.03,-1.43,0,1.98,8,1,0,1.26,9.64,0.41,"ERG049",503,0.01580808,103.0338889,5.777222222,10.752904,0.8831871,33.996662,1351.3038,0.000375745,"Not Bleached"
"103.02.04E.5.46.10N","Mini Mount","Pacific","Malaysia","Terengganu","Kuala Terengganu","2003","16-Oct-03",12,"Bleaching (% of population)",1,1,1,1,FALSE,1,301.79,300.69,302.22,297.63,305.7,1.4,3,-1.75,0.94,0,-3.29,4.27,7,6.05,31,7,0,3.42,22.11,2.48,-2.97,1.4,-6.02,2.03,-1.43,0,1.98,8,1,0,1.26,9.64,0.41,"ERG049",503,0.01580808,103.0344444,5.769444444,10.011196,0.863073,33.996662,1396.8093,0.000375745,"Bleached"
"103.02.08E.5.46.07N","Pulau Paku Kecil","Pacific","Malaysia","Terengganu","Kuala Terengganu","2003","17-Oct-03",12,"Bleaching (% of population)",0,0,0,0,FALSE,0,301.79,300.69,302.22,297.63,305.7,1.4,3,-1.75,0.94,0,-3.29,4.27,7,6.05,31,7,0,3.42,22.11,2.48,-2.97,1.4,-6.02,2.03,-1.43,0,1.98,8,1,0,1.26,9.64,0.41,"ERG049",503,0.01580808,103.0355556,5.768611111,12.967594,0.88864857,33.996662,1353.9047,0.000375745,"Not Bleached"
"103.02.08E.5.46.58N","Pelangi House Reef South","Pacific","Malaysia","Terengganu","Kuala Terengganu","2003","18-Oct-03",7,"Bleaching (% of population)",0,0,0,0,FALSE,0,301.79,300.69,302.22,297.63,305.7,1.4,3,-1.75,0.94,0,-3.29,4.27,7,6.05,31,7,0,3.42,22.11,2.48,-2.97,1.4,-6.02,2.03,-1.43,0,1.98,8,1,0,1.26,9.64,0.41,"ERG049",503,0.01580808,103.0355556,5.782777778,13.703483,0.8831871,33.996662,1351.3038,0.000375745,"Not Bleached"
"103.03.08E.5.46.04N","Pulau Lima, Southern Tip","Pacific","Malaysia","Terengganu","Kuala Terengganu","2003","18-Oct-03",10,"Bleaching (% of population)",5,0,0,2,FALSE,1.75,301.79,300.69,302.22,297.63,305.7,1.4,3,-1.75,0.94,0,-3.29,4.27,7,6.05,31,7,0,3.42,22.11,2.48,-2.97,1.4,-6.02,2.03,-1.43,0,1.98,8,1,0,1.26,9.64,0.41,"ERG049",503,0.01580808,103.0522222,5.767777778,9.1587,0.8831871,33.996662,1351.3038,0.000375745,"Bleached"
"103.03.08E.5.46.04N","Pulau Lima, Southern Tip","Pacific","Malaysia","Terengganu","Kuala Terengganu","2003","18-Oct-03",12,"Bleaching (% of population)",0,0,0,0,FALSE,0,301.79,300.69,302.22,297.63,305.7,1.4,3,-1.75,0.94,0,-3.29,4.27,7,6.05,31,7,0,3.42,22.11,2.48,-2.97,1.4,-6.02,2.03,-1.43,0,1.98,8,1,0,1.26,9.64,0.41,"ERG049",503,0.01580808,103.0522222,5.767777778,11.722078,0.8831871,33.996662,1351.3038,0.000375745,"Not Bleached"
"103.03.33E.5.46.26N","Black Coral Garden","Pacific","Malaysia","Terengganu","Pulau Redang","2003","25-Sep-03",6,"Bleaching (% of population)",0,0,0,0,FALSE,0,302.31,302.23,302.22,297.63,305.7,1.4,2,-0.39,0.94,0,-3.29,4.27,7,6.05,31,7,0,3.42,22.11,2.48,-1.43,1.4,-6.02,2.03,-1.43,0,1.98,8,1,0,1.26,9.64,0.41,"ERG049",503,0.01580808,103.0591667,5.773888889,13.569136,0.88505685,34.027664,1428.7645,0.000377947,"Not Bleached"
"103.03.33E.5.46.26N","Black Coral Garden","Pacific","Malaysia","Terengganu","Pulau Redang","2003","25-Sep-03",12,"Bleaching (% of population)",0,0,0,0,FALSE,0,302.31,302.23,302.22,297.63,305.7,1.4,2,-0.39,0.94,0,-3.29,4.27,7,6.05,31,7,0,3.42,22.11,2.48,-1.43,1.4,-6.02,2.03,-1.43,0,1.98,8,1,0,1.26,9.64,0.41,"ERG049",503,0.01580808,103.0591667,5.773888889,11.955411,0.88505685,34.027664,1428.7645,0.000377947,"Not Bleached"
"103.10.93.3E.10.50.20.1N","Koh Mano (channel)","Indian","Cambodia","Koh Kong","","2003","22-Feb-03",2,"Bleaching (% of population)",0,0,0,0,FALSE,0,302.93,301.6,302.36,299.17,307.54,1.2,3,-0.31,0.97,0,-3.31,4.21,2,6.92,31,8,2.28,4.11,19.88,2.75,-2.09,1.2,-4.51,3.84,-1.32,0,2.05,9,1,0,1.69,14.56,0.59,"ERG050",417,0.020555555,103.1822222,10.83891667,9.125172,0.97169447,34.216026,1103.0247,0.000374484,"Not Bleached"
"103.17.41.57E.10.37.23.01N","Fishing Bay","Pacific","Cambodia","Sihanoukville","Koh Rong Saloem","2009","26-Jul-09",3,"Bleaching (% of population)",0,0,0,0,FALSE,0,301.73,302,302.23,298.73,307.01,1.21,6,0.23,0.98,0,-3.02,3.78,4,7.25,33,8,0,4.36,24.93,2.86,-1.63,1.21,-4.9,3.37,-1.39,0,2.14,9,1,0,1.7,14.59,0.5,"ERG050",417,0.020555555,103.2948889,10.62305556,11.821895,0.70697826,33.59478,1377.5715,0.000385241,"Not Bleached"
"103.2.20.5E.5.46.18.1N","Pulau Paku Kecil SW","Pacific","Malaysia","Terengganu","Redang Island","2007","20-Apr-07",10,"Bleaching (% of population)",2,1,5,2,FALSE,2.5,303.66,303.3,302.22,297.63,305.7,1.4,2,0.03,0.94,0,-3.29,4.27,4,6.05,31,7,4.28,3.42,22.11,2.48,-0.36,1.4,-6.02,2.03,-1.43,1,1.98,8,1,0,1.26,9.64,0.41,"ERG049",503,0.01580808,103.0390278,5.771694444,12.937787,0.7721734,34.25036,1178.5596,0.000383554,"Bleached"
"103.2.20.5E.5.46.18.1N","Pulau Paku Kecil SW","Pacific","Malaysia","Terengganu","Redang Island","2007","1-Oct-07",11,"Bleaching (% of population)",0,0,0,0,FALSE,0,302.16,302.49,302.22,297.63,305.7,1.4,2,-0.12,0.94,0,-3.29,4.27,10,6.05,31,7,4.22,3.42,22.11,2.48,-1.17,1.4,-6.02,2.03,-1.43,4,1.98,8,1,1.07,1.26,9.64,0.41,"ERG049",503,0.01580808,103.0390278,5.771694444,7.317969,0.7400534,33.94082,1336.4944,0.000381693,"Not Bleached"
"103.2.20.5E.5.46.18.1N","Pulau Paku Kecil SW","Pacific","Malaysia","Terengganu","Redang Island","2008","30-Mar-08",8,"Bleaching (% of population)",0,0,0,0,FALSE,0,303.54,303.27,302.22,297.63,305.7,1.4,2,0.76,0.94,0,-3.29,4.27,10,6.05,31,7,4.43,3.42,22.11,2.48,-0.39,1.4,-6.02,2.03,-1.43,4,1.98,8,1,0,1.26,9.64,0.41,"ERG049",503,0.01580808,103.0390278,5.771694444,14.346939,0.7170397,34.11597,979.4073,0.000384215,"Not Bleached"
"103.2.20.5E.5.46.18.1N","Pulau Paku Kecil SW","Pacific","Malaysia","Terengganu","Redang Island","2008","20-Jun-08",11,"Bleaching (% of population)",0,0,0,0,FALSE,0,302.8,303.17,302.22,297.63,305.7,1.4,3,-0.17,0.94,0,-3.29,4.27,11,6.05,31,7,3.83,3.42,22.11,2.48,-0.49,1.4,-6.02,2.03,-1.43,3,1.98,8,1,0,1.26,9.64,0.41,"ERG049",503,0.01580808,103.0390278,5.771694444,11.191616,0.69491935,34.09261,1272.8429,0.000385335,"Not Bleached"
"103.3.32.8E.5.46.18.1N","Pulau Lima Southern Tip","Pacific","Malaysia","Terengganu","Redang Island","2007","21-Apr-07",10,"Bleaching (% of population)",2,10,10,0,FALSE,5.5,303.66,303.3,302.22,297.63,305.7,1.4,2,0.03,0.94,0,-3.29,4.27,4,6.05,31,7,4.28,3.42,22.11,2.48,-0.36,1.4,-6.02,2.03,-1.43,1,1.98,8,1,0,1.26,9.64,0.41,"ERG049",503,0.01580808,103.0591111,5.771694444,14.842231,0.80800056,34.25036,1275.0586,0.000383554,"Bleached"
"103.3.32.8E.5.46.18.1N","Pulau Lima Southern Tip","Pacific","Malaysia","Terengganu","Redang Island","2007","1-Oct-07",10,"Bleaching (% of population)",0,0,0,0,TRUE,0,302.16,302.49,302.22,297.63,305.7,1.4,2,-0.12,0.94,0,-3.29,4.27,10,6.05,31,7,4.22,3.42,22.11,2.48,-1.17,1.4,-6.02,2.03,-1.43,4,1.98,8,1,1.07,1.26,9.64,0.41,"ERG049",503,0.01580808,103.0591111,5.771694444,7.317969,0.7400534,33.94082,1336.4944,0.000381693,"Not Bleached"
"103.3.32.8E.5.46.18.1N","Pulau Lima Southern Tip","Pacific","Malaysia","Terengganu","Redang Island","2008","28-Jun-08",5.5,"Bleaching (% of population)",0,0,0,0,FALSE,0,302.74,301.76,302.22,297.63,305.7,1.4,2,-1.46,0.94,0,-3.29,4.27,10,6.05,31,7,3.83,3.42,22.11,2.48,-1.9,1.4,-6.02,2.03,-1.43,2,1.98,8,1,0,1.26,9.64,0.41,"ERG049",503,0.01580808,103.0591111,5.771694444,11.457382,0.7251138,34.09261,1350.5979,0.000385335,"Not Bleached"
"103.40.706E.4.48.456N","Fresh Water Bay, Tenggol","Pacific","Malaysia","Terengganu","Tenggol Island","2007","10-Apr-07",6,"Bleaching (% of population)",5,5,5,5,FALSE,5,303.2,300.82,301.78,296.85,305.52,1.31,2,-1.79,0.93,0,-3.79,3,8,6.25,32,6,3.44,3.52,19.54,2.35,-2.38,1.31,-6.34,2.31,-1.41,3,2.07,10,1,0,1.4,13.65,0.38,"ERG049",503,0.01530303,103.6784444,4.807611111,7.428502,0.8678271,34.226383,1281.1409,0.000383554,"Bleached"
"103.48.32E.10.21.33N","PQO02","Pacific","Vietnam","Kiengiang","Phuquoc","2006","16-May-06",5.5,"Bleaching (% of population)",0,0,0,0,FALSE,0,302.9,302.09,302.35,298.7,307.02,1.14,4,-1.54,0.91,0,-3.09,3.42,14,5.59,27,6,0,3.8,27.99,2.3,-1.6,1.14,-4.98,3.32,-1.33,0,2.5,11,1,0,2.01,16.35,0.62,"ERG050",417,0.020555555,103.8088889,10.35916667,11.541173,0.76581097,35.176296,1425.6505,0.00038216,"Not Bleached"
"103.48.46E.10.22.22N","PQO01","Pacific","Vietnam","Kiengiang","Phuquoc","2006","16-May-06",5.7,"Bleaching (% of population)",0,0,0,0,FALSE,0,302.9,303.28,302.39,298.58,307.19,1.15,4,-0.36,0.92,0,-3.4,3.57,14,5.78,29,6,2.23,3.53,21.79,2.31,-0.44,1.15,-5.13,3.47,-1.32,1,2.16,9,1,1.01,1.91,16.02,0.55,"ERG050",417,0.020555555,103.8127778,10.37277778,11.541173,0.76581097,34.27464,1425.6505,0.00038216,"Not Bleached"
"103.5.12.2E.11.3.7.3N","Koh Krosa Khnong","Indian","Cambodia","Koh Kong","","2003","26-Feb-03",4.5,"Bleaching (% of population)",50,0,0,0,FALSE,12.5,262.15,303.1,302.424,299.032,306.942,1.146,3,0.93,0.932,0,-3.264,3.38,5.2,5.898,27.2,6.4,6.152,4.108,25.366,2.394,-0.612,1.146,-4.672,3.224,-1.278,0,2.196,9.8,1,0,1.692,15.038,0.488,"ERG050",417,0.019065656,103.0867222,11.05202778,9.032618,0.038204942,35.22477,1161.7848,0.000374484,"Bleached"
"103.50.31E.10.19.21N","PQO03","Pacific","Vietnam","Kiengiang","Phuquoc","2006","16-May-06",2.5,"Bleaching (% of population)",0,0,0,0,FALSE,0,302.83,302.53,302.26,298.23,306.5,1.14,4,-1.1,0.88,0,-3.52,2.9,7,6.16,30,6,1.06,3.6,22.76,2.18,-1.16,1.14,-5.46,2.8,-1.42,0,1.75,7,1,0,1.51,14.44,0.41,"ERG050",417,0.020555555,103.8419444,10.3225,11.541173,0.76581097,33.824028,1425.6505,0.00038216,"Not Bleached"
"103.50.31E.10.19.21N","PQO03","Pacific","Vietnam","Kiengiang","Phuquoc","2006","16-May-06",5.5,"Bleaching (% of population)",0,0,0,0,FALSE,0,302.83,302.53,302.26,298.23,306.5,1.14,4,-1.1,0.88,0,-3.52,2.9,7,6.16,30,6,1.06,3.6,22.76,2.18,-1.16,1.14,-5.46,2.8,-1.42,0,1.75,7,1,0,1.51,14.44,0.41,"ERG050",417,0.020555555,103.8419444,10.3225,11.541173,0.76581097,35.18007,1425.6505,0.00038216,"Not Bleached"
"103.51.46E.10.17.56N","PQO04","Pacific","Vietnam","Kiengiang","Phuquoc","2006","15-May-06",2.5,"Bleaching (% of population)",0,0,0,0,FALSE,0,302.83,302.53,302.26,298.23,306.5,1.14,4,-1.1,0.88,0,-3.52,2.9,7,6.16,30,6,1.06,3.6,22.76,2.18,-1.16,1.14,-5.46,2.8,-1.42,0,1.75,7,1,0,1.51,14.44,0.41,"ERG050",417,0.020555555,103.8627778,10.29888889,9.358684,0.80112576,34.476315,1432.7809,0.00038216,"Not Bleached"
"103.51.46E.10.17.56N","PQO04","Pacific","Vietnam","Kiengiang","Phuquoc","2006","15-May-06",6,"Bleaching (% of population)",0,0,0,0,FALSE,0,302.83,302.53,302.26,298.23,306.5,1.14,4,-1.1,0.88,0,-3.52,2.9,7,6.16,30,6,1.06,3.6,22.76,2.18,-1.16,1.14,-5.46,2.8,-1.42,0,1.75,7,1,0,1.51,14.44,0.41,"ERG050",417,0.020555555,103.8627778,10.29888889,9.358684,0.80112576,33.903297,1432.7809,0.00038216,"Not Bleached"
"103.53.11E.10.17.28N","PQO05","Pacific","Vietnam","Kiengiang","Phuquoc","2006","15-May-06",2.5,"Bleaching (% of population)",0,0,0,0,FALSE,0,262.15,302.34,302.2133333,298.0566667,306.2333333,1.126666667,3,-1.24,0.863333333,0,-3.493333333,3.12,8.666666667,5.046666667,23.33333333,5.666666667,0.353333333,3.036666667,18.65,2.03,-1.3,1.126666667,-5.58,2.583333333,-1.416666667,0,1.653333333,7,1,0,1.27,10.7,0.37,"ERG050",417,0.020555555,103.8863889,10.29111111,9.358684,0.80112576,33.81958,1432.7809,0.00038216,"Not Bleached"
"103.53.11E.10.17.28N","PQO05","Pacific","Vietnam","Kiengiang","Phuquoc","2006","15-May-06",6,"Bleaching (% of population)",0,0,0,0,FALSE,0,262.15,302.34,302.2133333,298.0566667,306.2333333,1.126666667,3,-1.24,0.863333333,0,-3.493333333,3.12,8.666666667,5.046666667,23.33333333,5.666666667,0.353333333,3.036666667,18.65,2.03,-1.3,1.126666667,-5.58,2.583333333,-1.416666667,0,1.653333333,7,1,0,1.27,10.7,0.37,"ERG050",417,0.020555555,103.8863889,10.29111111,9.358684,0.80112576,34.68923,1432.7809,0.00038216,"Not Bleached"
"103.55.505E.2.32.668N","Turtle Bay, Tenggol","Pacific","Malaysia","Terengganu","Tenggol Island","2007","9-Apr-07",6,"Bleaching (% of population)",0,0,0,0,FALSE,0,303.15,302.42,301.8,297.98,305.73,1.16,1,-0.32,0.84,0,-3.08,2.99,6,5.82,33,6,1.92,3.08,20.28,1.98,-0.75,1.16,-5.19,2.55,-1.36,6,1.62,7,1,1.02,1.14,9.09,0.31,"ERG049",503,0.015883838,103.9250833,2.544472222,8.684954,0.05178071,35.544846,1332.6255,0.000382773,"Not Bleached"
"103.58.44E.09.55.04N","PQO12/Phu Quoc Site 9","Pacific","Vietnam","Kiengiang","Phuquoc","2006","4-May-06",4.7,"Bleaching (% of population)",0,0,0,0,FALSE,0,302.94,305.3,301.99,298.3,305.84,1.17,2,1.81,0.86,0,-3.3,2.75,13,5.37,31,6,1.31,2.83,19.29,1.96,1.81,1.17,-5.19,2.34,-1.49,1,1.68,8,1,1.3,1.24,10.35,0.38,"ERG050",417,0.020050505,103.9788889,9.917777778,13.542297,0.78830606,34.419044,1393.9476,0.000383432,"Not Bleached"
"103.58.56E.09.55.13N","PQO13","Pacific","Vietnam","Kiengiang","Phuquoc","2006","4-May-06",4.7,"Bleaching (% of population)",0,0,0,0,FALSE,0,302.94,305.3,301.99,298.3,305.84,1.17,2,1.81,0.86,0,-3.3,2.75,13,5.37,31,6,1.31,2.83,19.29,1.96,1.81,1.17,-5.19,2.34,-1.49,1,1.68,8,1,1.3,1.24,10.35,0.38,"ERG050",417,0.020050505,103.9822222,9.920277778,13.542297,0.78830606,35.13617,1393.9476,0.000383432,"Not Bleached"
"103.59.32E.09.54.33N","PQO17","Pacific","Vietnam","Kiengiang","Phuquoc","2006","8-May-06",2.5,"Bleaching (% of population)",0,0,0,0,FALSE,0,302.98,305.58,302,298.59,305.85,1.18,2,2.07,0.87,0,-2.93,2.98,15,5.5,25,6,1.33,3,21.3,2.13,2.08,1.18,-4.9,2.34,-1.49,1,1.59,6,1,1.32,1.21,8.55,0.38,"ERG050",417,0.020050505,103.9922222,9.909166667,8.395221,0.76418304,34.21664,1475.5364,0.000383432,"Not Bleached"
"103.59.32E.09.54.33N","PQO17","Pacific","Vietnam","Kiengiang","Phuquoc","2006","8-May-06",6.7,"Bleaching (% of population)",0,0,0,0,FALSE,0,302.98,305.58,302,298.59,305.85,1.18,2,2.07,0.87,0,-2.93,2.98,15,5.5,25,6,1.33,3,21.3,2.13,2.08,1.18,-4.9,2.34,-1.49,1,1.59,6,1,1.32,1.21,8.55,0.38,"ERG050",417,0.020050505,103.9922222,9.909166667,8.395221,0.76418304,33.954098,1475.5364,0.000383432,"Not Bleached"
"103.59.34E.09.54.48N","PQO16/Phu Quoc Site 7","Pacific","Vietnam","Kiengiang","Phuquoc","2006","11-May-06",2.2,"Bleaching (% of population)",0,0,0,0,FALSE,0,302.78,305.1,302,298.59,305.85,1.18,4,1.62,0.87,0,-2.93,2.98,16,5.5,25,6,3.41,3,21.3,2.13,1.6,1.18,-4.9,2.34,-1.49,2,1.59,6,1,3.4,1.21,8.55,0.38,"ERG050",417,0.020050505,103.9927778,9.913333333,13.26255,0.79581636,34.397675,1237.7289,0.000383432,"Not Bleached"
"103.59.34E.09.54.48N","PQO16/Phu Quoc Site 7","Pacific","Vietnam","Kiengiang","Phuquoc","2006","11-May-06",4.2,"Bleaching (% of population)",0,0,0,0,FALSE,0,302.78,305.1,302,298.59,305.85,1.18,4,1.62,0.87,0,-2.93,2.98,16,5.5,25,6,3.41,3,21.3,2.13,1.6,1.18,-4.9,2.34,-1.49,2,1.59,6,1,3.4,1.21,8.55,0.38,"ERG050",417,0.020050505,103.9927778,9.913333333,13.26255,0.79581636,34.55384,1237.7289,0.000383432,"Not Bleached"
"103.59.51E.09.55.19N","PQO14","Pacific","Vietnam","Kiengiang","Phuquoc","2006","10-May-06",3.5,"Bleaching (% of population)",0,0,0,0,FALSE,0,302.75,304.87,302.01,298.38,305.67,1.21,4,1.36,0.89,0,-2.98,2.83,14,5.51,34,6,5.1,3.02,20.83,2.11,1.32,1.21,-5.17,2.11,-1.53,2,1.63,7,1,2.9,1.17,10.19,0.33,"ERG050",417,0.020050505,103.9975,9.921944444,11.606989,0.7744091,34.377472,1293.9514,0.000383432,"Not Bleached"
"103.59.51E.09.55.19N","PQO14","Pacific","Vietnam","Kiengiang","Phuquoc","2006","10-May-06",7,"Bleaching (% of population)",0,0,0,0,FALSE,0,302.75,304.87,302.01,298.38,305.67,1.21,4,1.36,0.89,0,-2.98,2.83,14,5.51,34,6,5.1,3.02,20.83,2.11,1.32,1.21,-5.17,2.11,-1.53,2,1.63,7,1,2.9,1.17,10.19,0.33,"ERG050",417,0.020050505,103.9975,9.921944444,11.606989,0.7744091,34.73345,1293.9514,0.000383432,"Not Bleached"
"104.0.34E.10.0.01N","PQO07","Pacific","Vietnam","Kiengiang","Phuquoc","2006","17-May-06",4.7,"Bleaching (% of population)",0,0,0,0,FALSE,0,262.15,303.7428571,302.0114286,298.0357143,306.0742857,1.244285714,3,0.261428571,0.901428571,0,-3.258571429,3.051428571,14.14285714,5.208571429,27.42857143,6.428571429,3.698571429,3.035714286,16.9,2.248571429,0.12,1.244285714,-5.577142857,2.444285714,-1.601428571,1.714285714,1.44,6,1,2.772857143,1.107142857,7.892857143,0.361428571,"ERG050",417,0.02020202,104.0094444,10.00027778,12.229224,-0.25463033,35.627316,1540.9711,0.00038216,"Not Bleached"
"104.0.40E.09.58.09N","PQO09","Pacific","Vietnam","Kiengiang","Phuquoc","2006","7-May-06",2.2,"Bleaching (% of population)",0,0,0,0,FALSE,0,303.05,305.41,302,297.82,306.07,1.26,2,1.79,0.91,0,-3,3.01,10,4.8,26,6,3.95,2.81,14.37,2.19,1.79,1.26,-5.79,2.45,-1.61,1,1.35,6,1,1.26,1.01,7.21,0.34,"ERG050",417,0.02020202,104.0111111,9.969166667,8.476959,0.7127467,34.386547,1434.7968,0.000383432,"Not Bleached"
"104.0.40E.09.58.09N","PQO09","Pacific","Vietnam","Kiengiang","Phuquoc","2006","7-May-06",6.2,"Bleaching (% of population)",0,0,0,0,FALSE,0,303.05,305.41,302,297.82,306.07,1.26,2,1.79,0.91,0,-3,3.01,10,4.8,26,6,3.95,2.81,14.37,2.19,1.79,1.26,-5.79,2.45,-1.61,1,1.35,6,1,1.26,1.01,7.21,0.34,"ERG050",417,0.02020202,104.0111111,9.969166667,8.476959,0.7127467,35.18007,1434.7968,0.000383432,"Not Bleached"
"104.0.42E.09.57.24N","PQO10","Pacific","Vietnam","Kiengiang","Phuquoc","2006","5-May-06",2.8,"Bleaching (% of population)",0,0,0,0,FALSE,0,303.05,305.41,302,297.82,306.07,1.26,2,1.79,0.91,0,-3,3.01,10,4.8,26,6,3.95,2.81,14.37,2.19,1.79,1.26,-5.79,2.45,-1.61,1,1.35,6,1,1.26,1.01,7.21,0.34,"ERG050",417,0.02020202,104.0116667,9.956666667,11.611738,0.7919223,35.172535,1405.9767,0.000383432,"Not Bleached"
"104.0.42E.09.57.24N","PQO10","Pacific","Vietnam","Kiengiang","Phuquoc","2006","5-May-06",6,"Bleaching (% of population)",0,0,0,0,FALSE,0,303.05,305.41,302,297.82,306.07,1.26,2,1.79,0.91,0,-3,3.01,10,4.8,26,6,3.95,2.81,14.37,2.19,1.79,1.26,-5.79,2.45,-1.61,1,1.35,6,1,1.26,1.01,7.21,0.34,"ERG050",417,0.02020202,104.0116667,9.956666667,11.611738,0.7919223,33.811455,1405.9767,0.000383432,"Not Bleached"
"104.01.01E.09.54.52N","PQO18","Pacific","Vietnam","Kiengiang","Phuquoc","2006","2-May-06",2.5,"Bleaching (% of population)",0,0,0,0,FALSE,0,303.15,304.8,302.01,298.38,305.67,1.21,2,1.26,0.89,0,-2.98,2.83,12,5.51,34,6,2.19,3.02,20.83,2.11,1.25,1.21,-5.17,2.11,-1.53,0,1.63,7,1,0,1.17,10.19,0.33,"ERG050",417,0.02020202,104.0169444,9.914444444,11.341535,0.725204,34.21664,1420.9023,0.000383432,"Not Bleached"
"104.01.01E.09.54.52N","PQO18","Pacific","Vietnam","Kiengiang","Phuquoc","2006","2-May-06",5.7,"Bleaching (% of population)",0,0,0,0,FALSE,0,303.15,304.8,302.01,298.38,305.67,1.21,2,1.26,0.89,0,-2.98,2.83,12,5.51,34,6,2.19,3.02,20.83,2.11,1.25,1.21,-5.17,2.11,-1.53,0,1.63,7,1,0,1.17,10.19,0.33,"ERG050",417,0.02020202,104.0169444,9.914444444,11.341535,0.725204,34.5584,1420.9023,0.000383432,"Not Bleached"
"104.01.11E.09.55.16N","PQO11","Pacific","Vietnam","Kiengiang","Phuquoc","2006","14-May-06",3,"Bleaching (% of population)",0,0,0,0,FALSE,0,302.75,304.87,302.01,298.38,305.67,1.21,4,1.36,0.89,0,-2.98,2.83,14,5.51,34,6,5.1,3.02,20.83,2.11,1.32,1.21,-5.17,2.11,-1.53,2,1.63,7,1,2.9,1.17,10.19,0.33,"ERG050",417,0.02020202,104.0197222,9.921111111,3.7978718,0.7151593,34.617542,1401.4899,0.000383432,"Not Bleached"
"104.01.11E.09.55.16N","PQO11","Pacific","Vietnam","Kiengiang","Phuquoc","2006","14-May-06",5.2,"Bleaching (% of population)",0,0,0,0,FALSE,0,302.75,304.87,302.01,298.38,305.67,1.21,4,1.36,0.89,0,-2.98,2.83,14,5.51,34,6,5.1,3.02,20.83,2.11,1.32,1.21,-5.17,2.11,-1.53,2,1.63,7,1,2.9,1.17,10.19,0.33,"ERG050",417,0.02020202,104.0197222,9.921111111,3.7978718,0.7151593,35.176296,1401.4899,0.000383432,"Not Bleached"
"104.01.13E.09.55.07N","PQO19","Pacific","Vietnam","Kiengiang","Phuquoc","2006","14-May-06",2.7,"Bleaching (% of population)",0,0,0,0,FALSE,0,302.75,304.87,302.01,298.38,305.67,1.21,4,1.36,0.89,0,-2.98,2.83,14,5.51,34,6,5.1,3.02,20.83,2.11,1.32,1.21,-5.17,2.11,-1.53,2,1.63,7,1,2.9,1.17,10.19,0.33,"ERG050",417,0.02020202,104.0202778,9.918611111,3.7978718,0.7151593,34.514736,1401.4899,0.000383432,"Not Bleached"
"104.01.13E.09.55.07N","PQO19","Pacific","Vietnam","Kiengiang","Phuquoc","2006","14-May-06",6,"Bleaching (% of population)",0,0,0,0,FALSE,0,302.75,304.87,302.01,298.38,305.67,1.21,4,1.36,0.89,0,-2.98,2.83,14,5.51,34,6,5.1,3.02,20.83,2.11,1.32,1.21,-5.17,2.11,-1.53,2,1.63,7,1,2.9,1.17,10.19,0.33,"ERG050",417,0.02020202,104.0202778,9.918611111,3.7978718,0.7151593,35.027363,1401.4899,0.000383432,"Not Bleached"
"104.01.15E.09.54.23N","PQO20/Phu Quoc Site 10","Pacific","Vietnam","Kiengiang","Phuquoc","2006","9-May-06",3.7,"Bleaching (% of population)",0,0,0,0,FALSE,0,302.98,305.58,302,298.59,305.85,1.18,2,2.07,0.87,0,-2.93,2.98,15,5.5,25,6,1.33,3,21.3,2.13,2.08,1.18,-4.9,2.34,-1.49,1,1.59,6,1,1.32,1.21,8.55,0.38,"ERG050",417,0.02020202,104.0208333,9.906388889,11.666271,0.75675905,34.75531,1455.053,0.000383432,"Not Bleached"
"104.01.15E.09.54.23N","PQO20/Phu Quoc Site 10","Pacific","Vietnam","Kiengiang","Phuquoc","2006","9-May-06",7.7,"Bleaching (% of population)",0,0,0,0,FALSE,0,302.98,305.58,302,298.59,305.85,1.18,2,2.07,0.87,0,-2.93,2.98,15,5.5,25,6,1.33,3,21.3,2.13,2.08,1.18,-4.9,2.34,-1.49,1,1.59,6,1,1.32,1.21,8.55,0.38,"ERG050",417,0.02020202,104.0208333,9.906388889,11.666271,0.75675905,35.04918,1455.053,0.000383432,"Not Bleached"
"104.01.43E.10.00.17N","PQO06/Phu Quoc Site 1","Pacific","Vietnam","Kiengiang","Phuquoc","2006","6-May-06",2.2,"Bleaching (% of population)",0,0,0,0,FALSE,0,262.15,304.55,302.0114286,298.0357143,306.0742857,1.244285714,2,0.928571429,0.901428571,0,-3.258571429,3.051428571,13,5.208571429,27.42857143,6.428571429,1.648571429,3.035714286,16.9,2.248571429,0.927142857,1.244285714,-5.577142857,2.444285714,-1.601428571,0.571428571,1.44,6,1,0.751428571,1.107142857,7.892857143,0.361428571,"ERG050",417,0.02020202,104.0286111,10.00472222,12.482171,-0.1879629,35.178875,1473.7576,0.00038216,"Not Bleached"
"104.01.43E.10.00.17N","PQO06/Phu Quoc Site 1","Pacific","Vietnam","Kiengiang","Phuquoc","2006","6-May-06",5.5,"Bleaching (% of population)",0,0,0,0,FALSE,0,262.15,304.55,302.0114286,298.0357143,306.0742857,1.244285714,2,0.928571429,0.901428571,0,-3.258571429,3.051428571,13,5.208571429,27.42857143,6.428571429,1.648571429,3.035714286,16.9,2.248571429,0.927142857,1.244285714,-5.577142857,2.444285714,-1.601428571,0.571428571,1.44,6,1,0.751428571,1.107142857,7.892857143,0.361428571,"ERG050",417,0.02020202,104.0286111,10.00472222,12.482171,-0.1879629,35.208435,1473.7576,0.00038216,"Not Bleached"
"104.02.21E.09.59.41N","PQO08","Pacific","Vietnam","Kiengiang","Phuquoc","2006","17-May-06",3.5,"Bleaching (% of population)",0,0,0,0,FALSE,0,302.64,304.48,302.03,297.82,306.14,1.29,3,0.93,0.91,0,-3.86,3.83,18,5.52,32,6,5,3.08,20.05,2.16,0.79,1.29,-5.86,2.45,-1.65,3,1.45,7,1,4.93,1.07,9.6,0.32,"ERG050",417,0.02020202,104.0391667,9.994722222,10.709049,0.74123204,34.14287,1535.8414,0.000383432,"Not Bleached"
"104.09.26.6E.2.49.27N","Pirates Reef","Pacific","Malaysia","Pahang","Tioman Island","2004","16-Apr-04",7,"Bleaching (% of population)",0,2,0,0,FALSE,0.5,262.15,302.56,301.7475,297.4025,305.4325,1.2475,2,-0.26,0.8975,0,-3.5125,3.055,2.5,6.71,33.75,6.25,1.0625,3.6175,23.16,2.2725,-0.55,1.2475,-5.7,2.3125,-1.3525,1.75,1.725,9.25,1,0.265,1.1025,8.6825,0.3675,"ERG049",503,0.016111111,104.1573889,2.824166667,11.881371,0.7866589,34.18943,1208.3484,0.000377065,"Bleached"
"104.09.26.6E.2.49.27N","Pirates Reef","Pacific","Malaysia","Pahang","Tioman Island","2006","22-Apr-06",9,"Bleaching (% of population)",0,0,0,0,FALSE,0,262.15,305.3,301.7475,297.4025,305.4325,1.2475,1,2.3825,0.8975,0,-3.5125,3.055,9,6.71,33.75,6.25,4.6975,3.6175,23.16,2.2725,2.1875,1.2475,-5.7,2.3125,-1.3525,2,1.725,9.25,1,2.6175,1.1025,8.6825,0.3675,"ERG049",503,0.016111111,104.1573889,2.824166667,12.879082,0.73560935,34.327934,1479.3053,0.000380157,"Not Bleached"
"104.09.26.6E.2.49.27N","Pirates Reef","Pacific","Malaysia","Pahang","Tioman Island","2007","20-Apr-07",8,"Bleaching (% of population)",0,0,0,0,FALSE,0,262.15,303.445,301.7475,297.4025,305.4325,1.2475,1,0.55,0.8975,0,-3.5125,3.055,4.25,6.71,33.75,6.25,2.805,3.6175,23.16,2.2725,0.335,1.2475,-5.7,2.3125,-1.3525,2.25,1.725,9.25,1,0.255,1.1025,8.6825,0.3675,"ERG049",503,0.016111111,104.1573889,2.824166667,14.036188,0.7630285,34.239098,1379.4929,0.000382773,"Not Bleached"
"104.09.26.6E.2.49.27N","Pirates Reef","Pacific","Malaysia","Pahang","Tioman Island","2007","24-Aug-07",7,"Bleaching (% of population)",0,0,0,0,FALSE,0,262.15,301.1425,301.7475,297.4025,305.4325,1.2475,3,-0.615,0.8975,0,-3.5125,3.055,3.5,6.71,33.75,6.25,0.5175,3.6175,23.16,2.2725,-1.9675,1.2475,-5.7,2.3125,-1.3525,0.25,1.725,9.25,1,0,1.1025,8.6825,0.3675,"ERG049",503,0.016111111,104.1573889,2.824166667,8.189456,0.8065506,33.978485,1352.5066,0.000383398,"Not Bleached"
"104.09.26.6E.2.49.27N","Pirates Reef","Pacific","Malaysia","Pahang","Tioman Island","2007","17-Oct-07",8,"Bleaching (% of population)",0,0,0,0,FALSE,0,262.15,301.7175,301.7475,297.4025,305.4325,1.2475,4,-0.4975,0.8975,0,-3.5125,3.055,3.5,6.71,33.75,6.25,0,3.6175,23.16,2.2725,-1.3925,1.2475,-5.7,2.3125,-1.3525,0.25,1.725,9.25,1,0,1.1025,8.6825,0.3675,"ERG049",503,0.016111111,104.1573889,2.824166667,6.79735,0.92477554,33.97213,1354.6455,0.000384934,"Not Bleached"
"104.09.26.6E.2.49.27N","Pirates Reef","Pacific","Malaysia","Pahang","Tioman Island","2008","15-Mar-08",6,"Bleaching (% of population)",0,0,0,0,TRUE,0,262.15,299.965,301.7475,297.4025,305.4325,1.2475,3,-1.6275,0.8975,0,-3.5125,3.055,3,6.71,33.75,6.25,0,3.6175,23.16,2.2725,-3.145,1.2475,-5.7,2.3125,-1.3525,0.25,1.725,9.25,1,0,1.1025,8.6825,0.3675,"ERG049",503,0.016111111,104.1573889,2.824166667,14.757296,0.8395534,34.092102,1386.3259,0.000384092,"Not Bleached"
"104.09.26.6E.2.49.27N","Pirates Reef","Pacific","Malaysia","Pahang","Tioman Island","2008","16-Aug-08",8,"Bleaching (% of population)",15,5,4,8,FALSE,8,262.15,301.2825,301.7475,297.4025,305.4325,1.2475,3,-0.41,0.8975,0,-3.5125,3.055,0,6.71,33.75,6.25,0,3.6175,23.16,2.2725,-1.8275,1.2475,-5.7,2.3125,-1.3525,0,1.725,9.25,1,0,1.1025,8.6825,0.3675,"ERG049",503,0.016111111,104.1573889,2.824166667,9.735153,0.75481755,33.956814,1221.9219,0.000384882,"Bleached"
"104.09.26.6E.2.49.27N","Pirates Reef","Pacific","Malaysia","Pahang","Tioman Island","2008","18-Sep-08",8,"Bleaching (% of population)",0,0,0,0,FALSE,0,262.15,302.1525,301.7475,297.4025,305.4325,1.2475,3,0.0475,0.8975,0,-3.5125,3.055,0,6.71,33.75,6.25,0,3.6175,23.16,2.2725,-0.9575,1.2475,-5.7,2.3125,-1.3525,0,1.725,9.25,1,0,1.1025,8.6825,0.3675,"ERG049",503,0.016111111,104.1573889,2.824166667,13.372738,0.8475529,33.97726,1179.6279,0.000384648,"Not Bleached"
"104.09.26.6E.2.49.27N","Pirates Reef","Pacific","Malaysia","Pahang","Tioman Island","2008","18-Oct-08",6.5,"Bleaching (% of population)",0,0,0,0,FALSE,0,262.15,301.4675,301.7475,297.4025,305.4325,1.2475,2,-0.755,0.8975,0,-3.5125,3.055,0,6.71,33.75,6.25,0,3.6175,23.16,2.2725,-1.6425,1.2475,-5.7,2.3125,-1.3525,0,1.725,9.25,1,0,1.1025,8.6825,0.3675,"ERG049",503,0.016111111,104.1573889,2.824166667,13.569601,0.9202105,33.9137,1492.9423,0.00038396,"Not Bleached"
"104.29.929E.2.28.223N","Pulau Lang (off Pulau Aur)","Pacific","Malaysia","Johor","Pulau Aur","2006","28-Oct-06",5,"Bleaching (% of population)",1,1,0,1,TRUE,0.75,301.28,301.16,301.65,297.67,305.32,1.29,1,-0.93,0.91,0,-3.39,3.41,0,5.87,36,6,0,3.38,18.52,2.38,-1.89,1.29,-5.38,2.26,-1.39,0,1.63,7,1,0,1.09,6.57,0.41,"ERG049",503,0.016111111,104.4988056,2.470388889,12.290153,0.86717665,34.027313,1300.9486,0.000376305,"Bleached"
"104.29.929E.2.28.223N","Pulau Lang (off Pulau Aur)","Pacific","Malaysia","Johor","Pulau Aur","2006","28-Oct-06",10,"Bleaching (% of population)",0,0,0,0,FALSE,0,301.28,301.16,301.65,297.67,305.32,1.29,1,-0.93,0.91,0,-3.39,3.41,0,5.87,36,6,0,3.38,18.52,2.38,-1.89,1.29,-5.38,2.26,-1.39,0,1.63,7,1,0,1.09,6.57,0.41,"ERG049",503,0.016111111,104.4988056,2.470388889,12.290153,0.86717665,34.027313,1300.9486,0.000376305,"Not Bleached"
"104.29.929E.2.28.223N","Pulau Lang (off Pulau Aur)","Pacific","Malaysia","Johor","Pulau Aur","2006","29-Oct-06",10,"Bleaching (% of population)",0,2,0,1,TRUE,0.75,301.28,301.16,301.65,297.67,305.32,1.29,1,-0.93,0.91,0,-3.39,3.41,0,5.87,36,6,0,3.38,18.52,2.38,-1.89,1.29,-5.38,2.26,-1.39,0,1.63,7,1,0,1.09,6.57,0.41,"ERG049",503,0.016111111,104.4988056,2.470388889,12.284222,0.9177668,34.027313,1269.8694,0.000376305,"Bleached"
"104.6.148E.2.54.139N","Malang Rock","Pacific","Malaysia","Pahang","Tioman","2007","21-Apr-07",8,"Bleaching (% of population)",0,0,0,0,FALSE,0,303.05,302.07,301.76,297.53,305.42,1.33,1,-0.94,0.92,0,-3.8,3.54,2,6.05,31,6,0,3.33,21.15,2.22,-1.12,1.33,-5.65,2.23,-1.42,2,1.47,6,1,0,1.06,6.13,0.4,"ERG049",503,0.016111111,104.1024722,2.902305556,15.399092,0.7994103,34.239098,1347.0787,0.000382773,"Not Bleached"
"104.6.148E.2.54.139N","Malang Rock","Pacific","Malaysia","Pahang","Tioman","2007","15-Sep-07",7.5,"Bleaching (% of population)",0,0,0,0,FALSE,0,302.35,302.66,301.76,297.53,305.42,1.33,3,0.44,0.92,0,-3.8,3.54,1,6.05,31,6,0,3.33,21.15,2.22,-0.53,1.33,-5.65,2.23,-1.42,1,1.47,6,1,0,1.06,6.13,0.4,"ERG049",503,0.016111111,104.1024722,2.902305556,6.9445543,0.8025748,34.003647,1457.627,0.000387831,"Not Bleached"
"104.6.148E.2.54.139N","Malang Rock","Pacific","Malaysia","Pahang","Tioman","2008","19-Apr-08",7,"Bleaching (% of population)",0,0,0,0,FALSE,0,303.05,302.85,301.76,297.53,305.42,1.33,2,-0.14,0.92,0,-3.8,3.54,1,6.05,31,6,0,3.33,21.15,2.22,-0.34,1.33,-5.65,2.23,-1.42,1,1.47,6,1,0,1.06,6.13,0.4,"ERG049",503,0.016111111,104.1024722,2.902305556,11.956016,0.76716816,34.137756,1436.3414,0.000385879,"Not Bleached"
"104.6.148E.2.54.139N","Malang Rock","Pacific","Malaysia","Pahang","Tioman","2008","18-Jul-08",7,"Bleaching (% of population)",0,0,0,0,FALSE,0,301.89,301.45,301.76,297.53,305.42,1.33,2,-0.37,0.92,0,-3.8,3.54,0,6.05,31,6,0,3.33,21.15,2.22,-1.74,1.33,-5.65,2.23,-1.42,0,1.47,6,1,0,1.06,6.13,0.4,"ERG049",503,0.016111111,104.1024722,2.902305556,6.2994905,0.7952668,34.02182,1428.306,0.00038483,"Not Bleached"
"104.6.507E.2.54.891N","Kador Bay/Teluk Kador","Pacific","Malaysia","Pahang","Tioman","2007","21-Apr-07",8,"Bleaching (% of population)",0,0,0,0,FALSE,0,303.05,302.07,301.76,297.53,305.42,1.33,1,-0.94,0.92,0,-3.8,3.54,2,6.05,31,6,0,3.33,21.15,2.22,-1.12,1.33,-5.65,2.23,-1.42,2,1.47,6,1,0,1.06,6.13,0.4,"ERG049",503,0.016111111,104.1084444,2.914861111,15.399092,0.7994103,34.239098,1347.0787,0.000382773,"Not Bleached"
"104.6.507E.2.54.891N","Kador Bay/Teluk Kador","Pacific","Malaysia","Pahang","Tioman","2007","15-Sep-07",7.5,"Bleaching (% of population)",0,0,0,0,FALSE,0,302.35,302.66,301.76,297.53,305.42,1.33,3,0.44,0.92,0,-3.8,3.54,1,6.05,31,6,0,3.33,21.15,2.22,-0.53,1.33,-5.65,2.23,-1.42,1,1.47,6,1,0,1.06,6.13,0.4,"ERG049",503,0.016111111,104.1084444,2.914861111,6.9445543,0.8025748,34.003647,1457.627,0.000387831,"Not Bleached"
"104.6.507E.2.54.891N","Kador Bay/Teluk Kador","Pacific","Malaysia","Pahang","Tioman","2008","19-Apr-08",6.5,"Bleaching (% of population)",0,0,0,0,FALSE,0,303.05,302.85,301.76,297.53,305.42,1.33,2,-0.14,0.92,0,-3.8,3.54,1,6.05,31,6,0,3.33,21.15,2.22,-0.34,1.33,-5.65,2.23,-1.42,1,1.47,6,1,0,1.06,6.13,0.4,"ERG049",503,0.016111111,104.1084444,2.914861111,14.453762,0.76716816,34.137756,1436.3414,0.000385879,"Not Bleached"
"104.6.507E.2.54.891N","Kador Bay/Teluk Kador","Pacific","Malaysia","Pahang","Tioman","2008","7-Jun-08",6.4,"Bleaching (% of population)",10,50,5,10,FALSE,18.75,301.92,302.51,301.76,297.53,305.42,1.33,3,-0.24,0.92,0,-3.8,3.54,0,6.05,31,6,0,3.33,21.15,2.22,-0.68,1.33,-5.65,2.23,-1.42,0,1.47,6,1,0,1.06,6.13,0.4,"ERG049",503,0.016111111,104.1084444,2.914861111,5.4069886,0.7906626,34.05241,1456.1655,0.000384096,"Bleached"
"104.8.19E.2.48.60N","Renggis North Side","Pacific","Malaysia","Pahang","Tioman Island","2006","23-Apr-06",6,"Bleaching (% of population)",0,0,0,0,FALSE,0,262.15,305.0625,301.8275,296.9725,305.6625,1.285,1,2.0125,0.94,0,-3.7475,3.7025,11,6.9375,35.75,6.75,3.41,3.6675,18.9625,2.41,1.86,1.285,-6.2225,2.4525,-1.365,1.5,1.9275,10,1,1.8175,1.1875,8.535,0.4075,"ERG049",503,0.016111111,104.1365,2.81,12.020573,0.7374679,34.327934,1531.4463,0.000380157,"Not Bleached"
"104.8.7.5E.2.48.33.7N","Renggis Island North Side","Pacific","Malaysia","Pahang","Tioman Island","2007","20-Apr-07",8,"Bleaching (% of population)",0,0,0,0,FALSE,0,262.15,302.8975,301.8275,296.9725,305.6625,1.285,1,-0.13,0.94,0,-3.7475,3.7025,2.25,6.9375,35.75,6.75,0,3.6675,18.9625,2.41,-0.305,1.285,-6.2225,2.4525,-1.365,2,1.9275,10,1,0,1.1875,8.535,0.4075,"ERG049",503,0.016111111,104.1354167,2.809361111,14.036188,0.7630285,34.239098,1379.4929,0.000382773,"Not Bleached"
"104.8.7.5E.2.48.33.7N","Renggis Island North Side","Pacific","Malaysia","Pahang","Tioman Island","2007","16-Sep-07",7,"Bleaching (% of population)",0,0,0,0,FALSE,0,262.15,302.4175,301.8275,296.9725,305.6625,1.285,3,0.2775,0.94,0,-3.7475,3.7025,1,6.9375,35.75,6.75,1.08,3.6675,18.9625,2.41,-0.785,1.285,-6.2225,2.4525,-1.365,0,1.9275,10,1,0,1.1875,8.535,0.4075,"ERG049",503,0.016111111,104.1354167,2.809361111,7.4597616,0.7862485,34.003647,1459.8137,0.000387831,"Not Bleached"
"104.8.7.5E.2.48.33.7N","Renggis Island North Side","Pacific","Malaysia","Pahang","Tioman Island","2008","20-Jul-08",7,"Bleaching (% of population)",0,0,0,0,FALSE,0,262.15,301.635,301.8275,296.9725,305.6625,1.285,2,-0.1725,0.94,0,-3.7475,3.7025,0.25,6.9375,35.75,6.75,0,3.6675,18.9625,2.41,-1.5675,1.285,-6.2225,2.4525,-1.365,0,1.9275,10,1,0,1.1875,8.535,0.4075,"ERG049",503,0.016111111,104.1354167,2.809361111,11.18499,0.8280084,34.02182,1403.2797,0.00038483,"Not Bleached"
"104.8.7.5E.2.48.33.7N","Renggis Island North Side","Pacific","Malaysia","Pahang","Tioman Island","2008","18-Sep-08",7,"Bleaching (% of population)",0,0,0,0,FALSE,0,262.15,302.025,301.8275,296.9725,305.6625,1.285,3,-0.1925,0.94,0,-3.7475,3.7025,0.25,6.9375,35.75,6.75,0,3.6675,18.9625,2.41,-1.1775,1.285,-6.2225,2.4525,-1.365,0,1.9275,10,1,0,1.1875,8.535,0.4075,"ERG049",503,0.016111111,104.1354167,2.809361111,13.372738,0.8475529,33.97726,1179.6279,0.000384648,"Not Bleached"
"104.8.7.5E.2.48.33.7N","Renggis Island North Side","Pacific","Malaysia","Pahang","Tioman Island","2008","19-Oct-08",7,"Bleaching (% of population)",0,0,0,0,FALSE,0,262.15,302.1425,301.8275,296.9725,305.6625,1.285,2,-0.2125,0.94,0,-3.7475,3.7025,0.25,6.9375,35.75,6.75,0,3.6675,18.9625,2.41,-1.06,1.285,-6.2225,2.4525,-1.365,0,1.9275,10,1,0,1.1875,8.535,0.4075,"ERG049",503,0.016111111,104.1354167,2.809361111,12.871021,0.9260864,33.9137,1376.9508,0.00038396,"Not Bleached"
"104.8.8.2E.2.48.37.7N","Renggis Island South Side","Pacific","Malaysia","Pahang","Tioman Island","2007","25-Jul-07",6,"Bleaching (% of population)",0,0,0,0,FALSE,0,262.15,301.5375,301.8275,296.9725,305.6625,1.285,3,-0.1875,0.94,0,-3.7475,3.7025,1,6.9375,35.75,6.75,1.08,3.6675,18.9625,2.41,-1.665,1.285,-6.2225,2.4525,-1.365,0,1.9275,10,1,0,1.1875,8.535,0.4075,"ERG049",503,0.016111111,104.1356111,2.810472222,4.3901534,0.7469791,34.128067,1379.0648,0.000383397,"Not Bleached"
"104.8.8.2E.2.48.37.7N","Renggis Island South Side","Pacific","Malaysia","Pahang","Tioman Island","2007","15-Sep-07",7.3,"Bleaching (% of population)",0,0,0,0,FALSE,0,262.15,302.4175,301.8275,296.9725,305.6625,1.285,3,0.2775,0.94,0,-3.7475,3.7025,1,6.9375,35.75,6.75,1.08,3.6675,18.9625,2.41,-0.785,1.285,-6.2225,2.4525,-1.365,0,1.9275,10,1,0,1.1875,8.535,0.4075,"ERG049",503,0.016111111,104.1356111,2.810472222,6.9445543,0.8025748,34.003647,1457.627,0.000387831,"Not Bleached"
"104.9.3.2E.2.49.0.1N","Soyak Island","Pacific","Malaysia","Pahang","Tioman","2007","25-Jul-07",5,"Bleaching (% of population)",0,0,0,0,FALSE,0,262.15,301.5375,301.8275,296.9725,305.6625,1.285,3,-0.1875,0.94,0,-3.7475,3.7025,1,6.9375,35.75,6.75,1.08,3.6675,18.9625,2.41,-1.665,1.285,-6.2225,2.4525,-1.365,0,1.9275,10,1,0,1.1875,8.535,0.4075,"ERG049",503,0.016111111,104.1508889,2.816694444,4.3901534,0.7469791,34.128067,1379.0648,0.000383397,"Not Bleached"
"104.9.3.2E.2.49.0.1N","Soyak Island","Pacific","Malaysia","Pahang","Tioman","2007","20-Oct-07",6,"Bleaching (% of population)",0,0,0,0,TRUE,0,262.15,302.145,301.8275,296.9725,305.6625,1.285,4,-0.2025,0.94,0,-3.7475,3.7025,1,6.9375,35.75,6.75,0,3.6675,18.9625,2.41,-1.0575,1.285,-6.2225,2.4525,-1.365,0,1.9275,10,1,0,1.1875,8.535,0.4075,"ERG049",503,0.016111111,104.1508889,2.816694444,10.829977,0.9253407,33.97213,1492.7522,0.000384934,"Not Bleached"
"104.9.3.2E.2.49.0.1N","Soyak Island","Pacific","Malaysia","Pahang","Tioman","2008","18-Sep-08",7,"Bleaching (% of population)",0,0,0,0,FALSE,0,262.15,302.025,301.8275,296.9725,305.6625,1.285,3,-0.1925,0.94,0,-3.7475,3.7025,0.25,6.9375,35.75,6.75,0,3.6675,18.9625,2.41,-1.1775,1.285,-6.2225,2.4525,-1.365,0,1.9275,10,1,0,1.1875,8.535,0.4075,"ERG049",503,0.016111111,104.1508889,2.816694444,13.372738,0.8475529,33.97726,1179.6279,0.000384648,"Not Bleached"
"104.9.6.6E.2.48.54.1N","Terek House Reef","Pacific","Malaysia","Pahang","Tioman","2007","24-Jul-07",4,"Bleaching (% of population)",0,0,0,0,FALSE,0,262.15,301.3175,301.8275,296.9725,305.6625,1.285,2,-0.475,0.94,0,-3.7475,3.7025,1,6.9375,35.75,6.75,1.08,3.6675,18.9625,2.41,-1.885,1.285,-6.2225,2.4525,-1.365,0,1.9275,10,1,0,1.1875,8.535,0.4075,"ERG049",503,0.016111111,104.1518333,2.815027778,8.502254,0.7565342,34.128067,1372.3958,0.000383397,"Not Bleached"
"104.9.6.6E.2.48.54.1N","Terek House Reef","Pacific","Malaysia","Pahang","Tioman","2008","26-Feb-08",4.5,"Bleaching (% of population)",0,0,0,0,TRUE,0,262.15,299.305,301.8275,296.9725,305.6625,1.285,2,-1.535,0.94,0,-3.7475,3.7025,1.25,6.9375,35.75,6.75,0.31,3.6675,18.9625,2.41,-3.8975,1.285,-6.2225,2.4525,-1.365,0,1.9275,10,1,0,1.1875,8.535,0.4075,"ERG049",503,0.016111111,104.1518333,2.815027778,14.854627,0.82917506,33.965366,1334.8313,0.000383668,"Not Bleached"
"104.9.6.6E.2.48.54.1N","Terek House Reef","Pacific","Malaysia","Pahang","Tioman","2008","16-Aug-08",6,"Bleaching (% of population)",0,0,0,0,FALSE,0,262.15,301.5075,301.8275,296.9725,305.6625,1.285,3,-0.2325,0.94,0,-3.7475,3.7025,0.25,6.9375,35.75,6.75,0,3.6675,18.9625,2.41,-1.695,1.285,-6.2225,2.4525,-1.365,0,1.9275,10,1,0,1.1875,8.535,0.4075,"ERG049",503,0.016111111,104.1518333,2.815027778,9.735153,0.75481755,33.956814,1221.9219,0.000384882,"Not Bleached"
"105.40.2.1E.10.25.45.3S","Flying Fish Cove","Indian","Australia","West Australia","Christmas Island","2003","29-Oct-03",3.5,"Bleaching (% of population)",0,0,0,0,FALSE,0,262.15,299.3283333,300.73,296.56,305.2066667,1.393333333,8,-0.591666667,0.853333333,0,-3.131666667,3.623333333,0.333333333,6.013333333,29.33333333,5,0,3.65,25.03166667,1.905,-2.74,1.393333333,-5.501666667,3.13,-1.326666667,0.166666667,2.406666667,9.5,1,0,1.775,13.705,0.615,"ERG105",186,-0.005984848,105.66725,-10.42925,12.554639,0.6313134,34.548878,1153.2965,0.00037546,"Not Bleached"
"105.40.2.1E.10.25.45.3S","Flying Fish Cove","Indian","Australia","West Australia","Christmas Island","2003","29-Oct-03",6.5,"Bleaching (% of population)",0,0,0,0,FALSE,0,262.15,299.3283333,300.73,296.56,305.2066667,1.393333333,8,-0.591666667,0.853333333,0,-3.131666667,3.623333333,0.333333333,6.013333333,29.33333333,5,0,3.65,25.03166667,1.905,-2.74,1.393333333,-5.501666667,3.13,-1.326666667,0.166666667,2.406666667,9.5,1,0,1.775,13.705,0.615,"ERG105",186,-0.005984848,105.66725,-10.42925,6.890077,0.6313134,34.548878,1153.2965,0.00037546,"Not Bleached"
"105.40.2.1E.10.25.45.3S","Flying Fish Cove","Indian","Australia","West Australia","Christmas Island","2004","24-Sep-04",3.5,"Bleaching (% of population)",0,0,0,0,FALSE,0,262.15,299.275,300.73,296.56,305.2066667,1.393333333,5,0.171666667,0.853333333,0,-3.131666667,3.623333333,0.166666667,6.013333333,29.33333333,5,0.211666667,3.65,25.03166667,1.905,-2.793333333,1.393333333,-5.501666667,3.13,-1.326666667,0,2.406666667,9.5,1,0,1.775,13.705,0.615,"ERG105",186,-0.005984848,105.66725,-10.42925,10.946767,0.64251906,34.32469,886.79504,0.000375605,"Not Bleached"
"105.40.2.1E.10.25.45.3S","Flying Fish Cove","Indian","Australia","West Australia","Christmas Island","2004","24-Sep-04",7,"Bleaching (% of population)",0,0,0,0,FALSE,0,262.15,299.275,300.73,296.56,305.2066667,1.393333333,5,0.171666667,0.853333333,0,-3.131666667,3.623333333,0.166666667,6.013333333,29.33333333,5,0.211666667,3.65,25.03166667,1.905,-2.793333333,1.393333333,-5.501666667,3.13,-1.326666667,0,2.406666667,9.5,1,0,1.775,13.705,0.615,"ERG105",186,-0.005984848,105.66725,-10.42925,10.136792,0.64251906,34.32469,886.79504,0.000375605,"Not Bleached"
"105.40.2.1E.10.25.45.3S","Flying Fish Cove","Indian","Australia","West Australia","Christmas Island","2005","10-Oct-05",4,"Bleaching (% of population)",1,0,0,1,FALSE,0.5,262.15,299.375,300.73,296.56,305.2066667,1.393333333,9,0.06,0.853333333,0,-3.131666667,3.623333333,11.83333333,6.013333333,29.33333333,5,4.58,3.65,25.03166667,1.905,-2.693333333,1.393333333,-5.501666667,3.13,-1.326666667,5.333333333,2.406666667,9.5,1,0,1.775,13.705,0.615,"ERG105",186,-0.005984848,105.66725,-10.42925,13.523975,0.6213139,34.475822,815.8666,0.000378019,"Bleached"
"105.40.2.1E.10.25.45.3S","Flying Fish Cove","Indian","Australia","West Australia","Christmas Island","2005","10-Oct-05",6,"Bleaching (% of population)",0,0,1,0,FALSE,0.25,262.15,299.375,300.73,296.56,305.2066667,1.393333333,9,0.06,0.853333333,0,-3.131666667,3.623333333,11.83333333,6.013333333,29.33333333,5,4.58,3.65,25.03166667,1.905,-2.693333333,1.393333333,-5.501666667,3.13,-1.326666667,5.333333333,2.406666667,9.5,1,0,1.775,13.705,0.615,"ERG105",186,-0.005984848,105.66725,-10.42925,13.523975,0.6213139,34.475822,815.8666,0.000378019,"Bleached"
"105.40.2.1E.10.25.45.3S","Flying Fish Cove","Indian","Australia","West Australia","Christmas Island","2006","30-Oct-06",8,"Bleaching (% of population)",0,0,2,0,FALSE,0.5,262.15,299.545,300.73,296.56,305.2066667,1.393333333,7,-0.265,0.853333333,0,-3.131666667,3.623333333,2.5,6.013333333,29.33333333,5,0,3.65,25.03166667,1.905,-2.523333333,1.393333333,-5.501666667,3.13,-1.326666667,1.166666667,2.406666667,9.5,1,0,1.775,13.705,0.615,"ERG105",186,-0.005984848,105.66725,-10.42925,14.957685,0.49985737,34.500988,770.37854,0.000378987,"Bleached"
"105.40.2.1E.10.25.45.3S","Flying Fish Cove","Indian","Australia","West Australia","Christmas Island","2006","31-Oct-06",4,"Bleaching (% of population)",0,0,1,0,FALSE,0.25,262.15,299.545,300.73,296.56,305.2066667,1.393333333,7,-0.265,0.853333333,0,-3.131666667,3.623333333,2.5,6.013333333,29.33333333,5,0,3.65,25.03166667,1.905,-2.523333333,1.393333333,-5.501666667,3.13,-1.326666667,1.166666667,2.406666667,9.5,1,0,1.775,13.705,0.615,"ERG105",186,-0.005984848,105.66725,-10.42925,13.78296,0.48844594,34.500988,831.19495,0.000378987,"Bleached"
"105.40.2.1E.10.25.45.3S","Flying Fish Cove","Indian","Australia","West Australia","Christmas Island","2007","19-Sep-07",4,"Bleaching (% of population)",0,0.5,0,0,FALSE,0.125,262.15,298.575,300.73,296.56,305.2066667,1.393333333,10,-0.463333333,0.853333333,0,-3.131666667,3.623333333,4.833333333,6.013333333,29.33333333,5,1.015,3.65,25.03166667,1.905,-3.493333333,1.393333333,-5.501666667,3.13,-1.326666667,2.666666667,2.406666667,9.5,1,0,1.775,13.705,0.615,"ERG105",186,-0.005984848,105.66725,-10.42925,14.216372,0.61167616,34.388996,718.494,0.000381878,"Bleached"
"105.40.2.1E.10.25.45.3S","Flying Fish Cove","Indian","Australia","West Australia","Christmas Island","2007","20-Sep-07",8,"Bleaching (% of population)",0,0,0,0,FALSE,0,262.15,298.575,300.73,296.56,305.2066667,1.393333333,10,-0.463333333,0.853333333,0,-3.131666667,3.623333333,4.833333333,6.013333333,29.33333333,5,1.015,3.65,25.03166667,1.905,-3.493333333,1.393333333,-5.501666667,3.13,-1.326666667,2.666666667,2.406666667,9.5,1,0,1.775,13.705,0.615,"ERG105",186,-0.005984848,105.66725,-10.42925,13.458631,0.61001074,34.388996,598.451,0.000381878,"Not Bleached"
"105.41.6.4E.10.24.55.5S","Chicken Farm","Indian","Australia","West Australia","Christmas Island","2003","27-Oct-03",6,"Bleaching (% of population)",0,0,0,0,FALSE,0,262.15,299.1166667,300.73,296.56,305.2066667,1.393333333,8,-0.61,0.853333333,0,-3.131666667,3.623333333,0.333333333,6.013333333,29.33333333,5,0,3.65,25.03166667,1.905,-2.951666667,1.393333333,-5.501666667,3.13,-1.326666667,0.166666667,2.406666667,9.5,1,0,1.775,13.705,0.615,"ERG105",186,-0.005984848,105.6851111,-10.41541667,11.926078,0.6346955,34.548878,709.22375,0.00037546,"Not Bleached"
"105.41.6.4E.10.24.55.5S","Chicken Farm","Indian","Australia","West Australia","Christmas Island","2003","27-Oct-03",11,"Bleaching (% of population)",0,0,0,0,FALSE,0,262.15,299.1166667,300.73,296.56,305.2066667,1.393333333,8,-0.61,0.853333333,0,-3.131666667,3.623333333,0.333333333,6.013333333,29.33333333,5,0,3.65,25.03166667,1.905,-2.951666667,1.393333333,-5.501666667,3.13,-1.326666667,0.166666667,2.406666667,9.5,1,0,1.775,13.705,0.615,"ERG105",186,-0.005984848,105.6851111,-10.41541667,12.569148,0.6346955,34.548878,709.22375,0.00037546,"Not Bleached"
"105.41.6.4E.10.24.55.5S","Chicken Farm","Indian","Australia","West Australia","Christmas Island","2004","14-Oct-04",5.5,"Bleaching (% of population)",0,0,0,0,FALSE,0,262.15,299.2766667,300.73,296.56,305.2066667,1.393333333,7,-0.241666667,0.853333333,0,-3.131666667,3.623333333,0.166666667,6.013333333,29.33333333,5,0.211666667,3.65,25.03166667,1.905,-2.791666667,1.393333333,-5.501666667,3.13,-1.326666667,0,2.406666667,9.5,1,0,1.775,13.705,0.615,"ERG105",186,-0.005984848,105.6851111,-10.41541667,14.12563,0.6025922,34.44979,631.6834,0.00037559,"Not Bleached"
"105.41.6.4E.10.24.55.5S","Chicken Farm","Indian","Australia","West Australia","Christmas Island","2004","14-Oct-04",10.5,"Bleaching (% of population)",0,0,0,0,FALSE,0,262.15,299.2766667,300.73,296.56,305.2066667,1.393333333,7,-0.241666667,0.853333333,0,-3.131666667,3.623333333,0.166666667,6.013333333,29.33333333,5,0.211666667,3.65,25.03166667,1.905,-2.791666667,1.393333333,-5.501666667,3.13,-1.326666667,0,2.406666667,9.5,1,0,1.775,13.705,0.615,"ERG105",186,-0.005984848,105.6851111,-10.41541667,14.12563,0.6025922,34.44979,631.6834,0.00037559,"Not Bleached"
"105.41.6.4E.10.24.55.5S","Chicken Farm","Indian","Australia","West Australia","Christmas Island","2005","12-Oct-05",6,"Bleaching (% of population)",1,0,0,0,FALSE,0.25,262.15,299.8366667,300.73,296.56,305.2066667,1.393333333,5,0.358333333,0.853333333,0,-3.131666667,3.623333333,11.83333333,6.013333333,29.33333333,5,2.995,3.65,25.03166667,1.905,-2.231666667,1.393333333,-5.501666667,3.13,-1.326666667,5.333333333,2.406666667,9.5,1,0,1.775,13.705,0.615,"ERG105",186,-0.005984848,105.6851111,-10.41541667,13.917858,0.606094,34.475822,1068.7914,0.000378019,"Bleached"
"105.41.6.4E.10.24.55.5S","Chicken Farm","Indian","Australia","West Australia","Christmas Island","2005","12-Oct-05",10,"Bleaching (% of population)",1,0,1,0,FALSE,0.5,262.15,299.8366667,300.73,296.56,305.2066667,1.393333333,5,0.358333333,0.853333333,0,-3.131666667,3.623333333,11.83333333,6.013333333,29.33333333,5,2.995,3.65,25.03166667,1.905,-2.231666667,1.393333333,-5.501666667,3.13,-1.326666667,5.333333333,2.406666667,9.5,1,0,1.775,13.705,0.615,"ERG105",186,-0.005984848,105.6851111,-10.41541667,13.917858,0.606094,34.475822,1068.7914,0.000378019,"Bleached"
"105.41.6.4E.10.24.55.5S","Chicken Farm","Indian","Australia","West Australia","Christmas Island","2006","10-Oct-06",6,"Bleaching (% of population)",0,0,0,1,FALSE,0.25,262.15,299.7,300.73,296.56,305.2066667,1.393333333,8,0.401666667,0.853333333,0,-3.131666667,3.623333333,2.5,6.013333333,29.33333333,5,0,3.65,25.03166667,1.905,-2.363333333,1.393333333,-5.501666667,3.13,-1.326666667,1.166666667,2.406666667,9.5,1,0,1.775,13.705,0.615,"ERG105",186,-0.005984848,105.6851111,-10.41541667,13.411337,0.5295554,34.500988,538.6784,0.000378987,"Bleached"
"105.41.6.4E.10.24.55.5S","Chicken Farm","Indian","Australia","West Australia","Christmas Island","2006","11-Oct-06",10,"Bleaching (% of population)",0,0,0,0,FALSE,0,262.15,299.0316667,300.73,296.56,305.2066667,1.393333333,9,-0.413333333,0.853333333,0,-3.131666667,3.623333333,2.5,6.013333333,29.33333333,5,0,3.65,25.03166667,1.905,-3.036666667,1.393333333,-5.501666667,3.13,-1.326666667,1.166666667,2.406666667,9.5,1,0,1.775,13.705,0.615,"ERG105",186,-0.005984848,105.6851111,-10.41541667,14.21982,0.5364855,34.500988,587.1213,0.000378987,"Not Bleached"
"105.41.6.4E.10.24.55.5S","Chicken Farm","Indian","Australia","West Australia","Christmas Island","2007","23-Sep-07",4,"Bleaching (% of population)",0,0,0,0,FALSE,0,262.15,298.575,300.73,296.56,305.2066667,1.393333333,10,-0.463333333,0.853333333,0,-3.131666667,3.623333333,4.833333333,6.013333333,29.33333333,5,1.015,3.65,25.03166667,1.905,-3.493333333,1.393333333,-5.501666667,3.13,-1.326666667,2.666666667,2.406666667,9.5,1,0,1.775,13.705,0.615,"ERG105",186,-0.005984848,105.6851111,-10.41541667,13.486204,0.60098344,34.388996,851.1098,0.000381878,"Not Bleached"
"105.41.6.4E.10.24.55.5S","Chicken Farm","Indian","Australia","West Australia","Christmas Island","2007","23-Sep-07",10,"Bleaching (% of population)",0.5,0.5,0,0,FALSE,0.25,262.15,298.575,300.73,296.56,305.2066667,1.393333333,10,-0.463333333,0.853333333,0,-3.131666667,3.623333333,4.833333333,6.013333333,29.33333333,5,1.015,3.65,25.03166667,1.905,-3.493333333,1.393333333,-5.501666667,3.13,-1.326666667,2.666666667,2.406666667,9.5,1,0,1.775,13.705,0.615,"ERG105",186,-0.005984848,105.6851111,-10.41541667,13.486204,0.60098344,34.388996,851.1098,0.000381878,"Bleached"
"106.36.28E.8.39.20N","CDA03","Pacific","Vietnam","Vungtau-Baria","Condao","2004","22-Jun-04",3,"Bleaching (% of population)",0,0,0,0,FALSE,0,301.84,301.67,300.8,296.14,305.61,1.83,7,-0.76,0.9,0,-3.03,3.43,6,6.63,35,6,1.03,3.74,26.23,2.37,-1.13,1.83,-6.65,2.8,-1.99,0,1.77,8,1,0,1.23,11.26,0.4,"ERG051",462,0.008989899,106.6077778,8.655555556,8.868761,0.61767244,35.241695,1245.2909,0.000376152,"Not Bleached"
"106.36.28E.8.39.20N","CDA03","Pacific","Vietnam","Vungtau-Baria","Condao","2004","22-Jun-04",7.9,"Bleaching (% of population)",0,0,0,0,FALSE,0,301.84,301.67,300.8,296.14,305.61,1.83,7,-0.76,0.9,0,-3.03,3.43,6,6.63,35,6,1.03,3.74,26.23,2.37,-1.13,1.83,-6.65,2.8,-1.99,0,1.77,8,1,0,1.23,11.26,0.4,"ERG051",462,0.008989899,106.6077778,8.655555556,11.216855,0.61767244,34.257504,1245.2909,0.000376152,"Not Bleached"
"106.37.48E.8.40.7N","CDA02","Pacific","Vietnam","Vungtau-Baria","Condao","2004","22-Jun-04",2.8,"Bleaching (% of population)",0,0,0,0,FALSE,0,301.76,302.3,300.73,295.58,306.2,1.82,7,-0.04,0.91,0,-3.14,3.57,4,6.1,31,6,2.25,3.61,25.58,2.28,-0.39,1.82,-7.1,3.5,-1.95,2,1.69,8,1,2.12,1.26,8.58,0.44,"ERG051",462,0.008989899,106.63,8.668611111,9.426811,0.61767244,34.289055,1245.2909,0.000376152,"Not Bleached"
"106.37.48E.8.40.7N","CDA02","Pacific","Vietnam","Vungtau-Baria","Condao","2004","22-Jun-04",7,"Bleaching (% of population)",0,0,0,0,FALSE,0,301.76,302.3,300.73,295.58,306.2,1.82,7,-0.04,0.91,0,-3.14,3.57,4,6.1,31,6,2.25,3.61,25.58,2.28,-0.39,1.82,-7.1,3.5,-1.95,2,1.69,8,1,2.12,1.26,8.58,0.44,"ERG051",462,0.008989899,106.63,8.668611111,13.876981,0.61767244,35.2883,1245.2909,0.000376152,"Not Bleached"
"106.37.49E.8.44.50N","CDA01","Pacific","Vietnam","Vungtau-Baria","Condao","2004","23-Jun-04",4,"Bleaching (% of population)",0,0,0,0,FALSE,0,262.15,301.23,300.7685714,295.4971429,306.0214286,1.855714286,8,-0.992857143,0.917142857,0,-3.308571429,3.562857143,3.714285714,6.46,32.14285714,6,0.627142857,3.812857143,24.90428571,2.374285714,-1.515714286,1.855714286,-7.24,3.265714286,-1.965714286,0.428571429,2.145714286,10.14285714,1,0.447142857,1.478571429,10.93,0.492857143,"ERG051",462,0.008989899,106.6302778,8.747222222,11.179716,0.59469664,34.95666,1240.9498,0.000376152,"Not Bleached"
"106.37.49E.8.44.50N","CDA01","Pacific","Vietnam","Vungtau-Baria","Condao","2004","23-Jun-04",9.3,"Bleaching (% of population)",0,0,0,0,FALSE,0,262.15,301.23,300.7685714,295.4971429,306.0214286,1.855714286,8,-0.992857143,0.917142857,0,-3.308571429,3.562857143,3.714285714,6.46,32.14285714,6,0.627142857,3.812857143,24.90428571,2.374285714,-1.515714286,1.855714286,-7.24,3.265714286,-1.965714286,0.428571429,2.145714286,10.14285714,1,0.447142857,1.478571429,10.93,0.492857143,"ERG051",462,0.008989899,106.6302778,8.747222222,10.541217,0.59469664,34.504005,1240.9498,0.000376152,"Not Bleached"
"106.37.56E.8.38.23N","CDA04","Pacific","Vietnam","Vungtau-Baria","Condao","2004","21-Jun-04",3.2,"Bleaching (% of population)",0,0,0,0,FALSE,0,301.8,302.28,300.79,295.1,305.47,1.82,7,-0.11,0.89,0,-3.07,3.51,2,6.44,35,6,1.06,3.61,25.32,2.23,-0.5,1.82,-7.67,2.69,-1.98,0,1.6,8,1,0,1.11,7.72,0.38,"ERG051",462,0.008989899,106.6322222,8.639722222,9.375875,0.68989146,34.68923,1310.277,0.000376152,"Not Bleached"
"106.37.56E.8.38.23N","CDA04","Pacific","Vietnam","Vungtau-Baria","Condao","2004","21-Jun-04",7.8,"Bleaching (% of population)",0,0,0,0,FALSE,0,301.8,302.28,300.79,295.1,305.47,1.82,7,-0.11,0.89,0,-3.07,3.51,2,6.44,35,6,1.06,3.61,25.32,2.23,-0.5,1.82,-7.67,2.69,-1.98,0,1.6,8,1,0,1.11,7.72,0.38,"ERG051",462,0.008989899,106.6322222,8.639722222,11.137813,0.68989146,34.27633,1310.277,0.000376152,"Not Bleached"
"106.38.51E.8.41.34N","CDA06","Pacific","Vietnam","Vungtau-Baria","Condao","2004","20-Jun-04",3.6,"Bleaching (% of population)",0,0,0,0,FALSE,0,301.76,302.3,300.73,295.58,306.2,1.82,7,-0.04,0.91,0,-3.14,3.57,4,6.1,31,6,2.25,3.61,25.58,2.28,-0.39,1.82,-7.1,3.5,-1.95,2,1.69,8,1,2.12,1.26,8.58,0.44,"ERG051",462,0.008989899,106.6475,8.692777778,11.462652,0.7138903,34.377472,1362.0612,0.000376152,"Not Bleached"
"106.38.51E.8.41.34N","CDA06","Pacific","Vietnam","Vungtau-Baria","Condao","2004","20-Jun-04",7.9,"Bleaching (% of population)",0,0,0,0,FALSE,0,301.76,302.3,300.73,295.58,306.2,1.82,7,-0.04,0.91,0,-3.14,3.57,4,6.1,31,6,2.25,3.61,25.58,2.28,-0.39,1.82,-7.1,3.5,-1.95,2,1.69,8,1,2.12,1.26,8.58,0.44,"ERG051",462,0.008989899,106.6475,8.692777778,15.328082,0.7138903,34.377472,1362.0612,0.000376152,"Not Bleached"
"106.40.26E.8.39.38N","CDA07","Pacific","Vietnam","Vungtau-Baria","Condao","2004","21-Jun-04",3,"Bleaching (% of population)",0,0,0,0,FALSE,0,301.79,301.85,300.77,295.89,305.44,1.83,7,-0.48,0.89,0,-3.06,3.32,3,6.28,33,6,1.13,3.65,25.74,2.16,-0.86,1.83,-6.81,2.73,-1.93,1,1.85,10,1,1.05,1.29,8.21,0.46,"ERG051",462,0.008989899,106.6738889,8.660555556,11.769662,0.68989146,34.12236,1310.277,0.000376152,"Not Bleached"
"106.40.26E.8.39.38N","CDA07","Pacific","Vietnam","Vungtau-Baria","Condao","2004","21-Jun-04",10.1,"Bleaching (% of population)",0,0,0,0,FALSE,0,301.79,301.85,300.77,295.89,305.44,1.83,7,-0.48,0.89,0,-3.06,3.32,3,6.28,33,6,1.13,3.65,25.74,2.16,-0.86,1.83,-6.81,2.73,-1.93,1,1.85,10,1,1.05,1.29,8.21,0.46,"ERG051",462,0.008989899,106.6738889,8.660555556,12.597127,0.68989146,34.587566,1310.277,0.000376152,"Not Bleached"
"106.40.39E.8.41.33N","CDA05","Pacific","Vietnam","Vungtau-Baria","Condao","2004","23-Jun-04",2.5,"Bleaching (% of population)",0,0,0,0,FALSE,0,301.75,300.9,300.74,295.94,305.57,1.86,8,-1.34,0.9,0,-3.25,3.12,3,6.85,34,6,1.11,3.82,25.59,2.26,-1.84,1.86,-6.79,2.82,-1.98,1,1.89,11,1,1.01,1.24,8.1,0.37,"ERG051",462,0.008989899,106.6775,8.6925,11.44907,0.59469664,33.8973,1240.9498,0.000376152,"Not Bleached"
"106.40.39E.8.41.33N","CDA05","Pacific","Vietnam","Vungtau-Baria","Condao","2004","23-Jun-04",5.5,"Bleaching (% of population)",0,0,0,0,FALSE,0,301.75,300.9,300.74,295.94,305.57,1.86,8,-1.34,0.9,0,-3.25,3.12,3,6.85,34,6,1.11,3.82,25.59,2.26,-1.84,1.86,-6.79,2.82,-1.98,1,1.89,11,1,1.01,1.24,8.1,0.37,"ERG051",462,0.008989899,106.6775,8.6925,7.8478265,0.59469664,33.495495,1240.9498,0.000376152,"Not Bleached"
"107.03.30E.20.44.20N","Cat Ba","Pacific","Vietnam","Haiphong","Haiphong","2003","28-Aug-03",3.2,"Bleaching (% of population)",0,0,0,0,FALSE,0,262.15,302.955,298.07,288.4233333,306.535,4.495,4,0.033333333,1.161666667,0,-4.205,4.793333333,11.16666667,5.123333333,24.66666667,9,2.378333333,4.368333333,24.84833333,3.73,-0.378333333,4.495,-14.90166667,3.193333333,-5.255,0,1.645,7.333333333,1,0,1.381666667,11.57,0.446666667,"ERG053",204,0.004141414,107.0583333,20.73888889,8.148788,-0.010476731,38.90311,1437.669,0.0003746,"Not Bleached"
"107.06.15E.20.45.15N","Coc Cheo","Pacific","Vietnam","Quang Ninh","Ha Long","2003","27-Sep-03",4.7,"Bleaching (% of population)",0,0,0,0,FALSE,0,299.98,301.63,298.09,288.5,306.72,4.5,4,-0.27,1.21,0,-4.44,7.58,10,5.34,27,9,0,5.06,36.61,3.98,-1.74,4.5,-14.86,3.34,-5.27,0,2.05,9,1,0,1.74,15.01,0.56,"ERG053",204,0.004141414,107.1041667,20.75416667,6.4589553,-0.014393261,36.190277,1405.6858,0.0003746,"Not Bleached"
"107.06.58E.20.48.15N","Ang Du","Pacific","Vietnam","Quang Ninh","Ha Long","2003","27-Sep-03",3,"Bleaching (% of population)",0,0,0,0,FALSE,0,299.93,301.76,298.17,289.68,307.26,4.39,4,-0.18,1.23,0,-5.06,7.17,9,6.05,27,10,0,5.41,35.41,4.14,-1.59,4.39,-13.67,3.9,-5.17,0,2.31,11,1,0,1.67,10.48,0.61,"ERG053",204,0.004141414,107.1161111,20.80416667,5.161713,-0.014393261,35.958374,1405.6858,0.0003746,"Not Bleached"
"107.07.30E.20.47.30N","To Cac Be","Pacific","Vietnam","Quang Ninh","Ha Long","2003","27-Sep-03",3.5,"Bleaching (% of population)",0,0,0,0,FALSE,0,299.93,301.76,298.17,289.68,307.26,4.39,4,-0.18,1.23,0,-5.06,7.17,9,6.05,27,10,0,5.41,35.41,4.14,-1.59,4.39,-13.67,3.9,-5.17,0,2.31,11,1,0,1.67,10.48,0.61,"ERG053",204,0.004141414,107.125,20.79166667,5.161713,-0.014393261,36.160076,1405.6858,0.0003746,"Not Bleached"
"107.09.20E.20.49.15N","Cong Do","Pacific","Vietnam","Quang Ninh","Ha Long","2003","27-Sep-03",4,"Bleaching (% of population)",0,0,0,0,FALSE,0,299.92,301.89,298.11,288.38,307.26,4.42,4,0,1.19,0,-4.98,7.16,10,5.98,33,9,0,5.37,37.98,3.97,-1.35,4.42,-14.85,4.01,-5.12,0,1.8,8,1,0,1.44,10.52,0.48,"ERG053",204,0.004141414,107.1555556,20.82083333,6.7464643,-0.014393261,35.56543,1405.6858,0.0003746,"Not Bleached"
"107.10.40E.20.50.45N","Bu Xam","Pacific","Vietnam","Quang Ninh","Ha Long","2003","27-Sep-03",3,"Bleaching (% of population)",0,0,0,0,FALSE,0,299.8,302.3,298.09,289.69,307.26,4.36,3,0.51,1.27,0,-4.89,7.15,9,5.74,27,10,0,5.76,46.75,4.22,-0.88,4.36,-13.48,4.07,-5.08,0,2.18,11,1,0,1.74,12,0.64,"ERG053",204,0.004141414,107.1777778,20.84583333,5.161713,0.000459847,36.369232,1405.6858,0.0003746,"Not Bleached"
"107.34.15E.20.59.15N","Doi Xo","Pacific","Vietnam","Quang Ninh","Van Don","2003","27-Sep-03",5,"Bleaching (% of population)",0,0,0,0,FALSE,0,299.2,301.54,297.5,287.67,305.97,4.79,3,-0.03,1.28,0,-4.17,8.07,13,5.58,26,10,0,5.29,30.59,4.21,-1.72,4.79,-15.58,2.71,-5.75,0,1.94,9,1,0,1.53,14.54,0.46,"ERG053",204,0.004141414,107.5708333,20.9875,6.181024,0.038358565,35.753067,1508.2917,0.000373794,"Not Bleached"
"107.37.10E.21.06.15N","Cua Vanh","Pacific","Vietnam","Quang Ninh","Van Don","2003","27-Sep-03",5,"Bleaching (% of population)",0,0,0,0,FALSE,0,299.1,301.35,297.48,287.64,305.51,4.79,3,-0.23,1.32,0,-4.43,7.76,13,6.28,30,11,1.46,5.45,35.59,4.55,-1.9,4.79,-15.6,2.25,-5.75,1,1.59,9,1,1.47,1.16,10.18,0.42,"ERG053",204,-0.007373737,107.6194444,21.10416667,9.537497,0.28030634,36.004112,1416.2976,0.000373794,"Not Bleached"
"108.11.32E.11.49.00N","NTH01","Pacific","Vietnam","Ninhthuan","Aian-Vinhhuy-Myhoa","2005","24-Jun-05",3.2,"Bleaching (% of population)",1,2,4,2,FALSE,2.25,300.85,299.98,299.84,294.92,304.6,1.87,5,-0.95,1.05,0,-4.27,3.85,5,6.14,31,8,0,3.82,20.5,3.19,-1.42,1.87,-6.48,3.19,-1.55,2,2.88,18,3,0,2.03,11.67,1.17,"ERG051",462,0.006388889,109.3058333,12.07472222,11.462652,0.67867714,34.47051,1269.0225,0.000380221,"Bleached"
"108.11.32E.11.49.00N","NTH01","Pacific","Vietnam","Ninhthuan","Aian-Vinhhuy-Myhoa","2005","24-Jun-05",6.2,"Bleaching (% of population)",1,2,3,4,FALSE,2.5,300.85,299.98,299.84,294.92,304.6,1.87,5,-0.95,1.05,0,-4.27,3.85,5,6.14,31,8,0,3.82,20.5,3.19,-1.42,1.87,-6.48,3.19,-1.55,2,2.88,18,3,0,2.03,11.67,1.17,"ERG051",462,0.006388889,109.3058333,12.07472222,11.462652,0.67867714,34.47051,1269.0225,0.000380221,"Bleached"
"108.12.00E.11.46.58N","NTH02","Pacific","Vietnam","Ninhthuan","Aian-Vinhhuy-Myhoa","2005","24-Jun-05",3.3,"Bleaching (% of population)",1,4,1,0,FALSE,1.5,300.85,299.98,299.84,294.92,304.6,1.87,5,-0.95,1.05,0,-4.27,3.85,5,6.14,31,8,0,3.82,20.5,3.19,-1.42,1.87,-6.48,3.19,-1.55,2,2.88,18,3,0,2.03,11.67,1.17,"ERG051",462,0.006388889,109.3057778,12.07475,11.462652,0.67867714,34.47051,1269.0225,0.000380221,"Bleached"
"108.12.00E.11.46.58N","NTH02","Pacific","Vietnam","Ninhthuan","Aian-Vinhhuy-Myhoa","2005","24-Jun-05",7,"Bleaching (% of population)",0,1,0,2,FALSE,0.75,300.85,299.98,299.84,294.92,304.6,1.87,5,-0.95,1.05,0,-4.27,3.85,5,6.14,31,8,0,3.82,20.5,3.19,-1.42,1.87,-6.48,3.19,-1.55,2,2.88,18,3,0,2.03,11.67,1.17,"ERG051",462,0.006388889,109.3057778,12.07475,11.462652,0.67867714,34.47051,1269.0225,0.000380221,"Bleached"
"108.25.18E.15.58.20N","CLC01","Pacific","Vietnam","Quangnam","Culaocham","2004","25-May-04",3,"Bleaching (% of population)",2,3,1,0,FALSE,1.5,301.7,301.08,299.42,292.99,304.98,2.62,3,0.55,1.02,0,-3.88,3.19,6,5.55,24,8,0,3.52,20.37,3.04,-1.38,2.62,-9.46,2.51,-3.03,2,1.62,7,1,0,1.25,10.6,0.43,"ERG053",204,0.012929293,108.4216667,15.97222222,7.6158395,-0.11398844,36.267307,1427.7035,0.000376827,"Bleached"
"108.25.18E.15.58.20N","CLC01","Pacific","Vietnam","Quangnam","Culaocham","2004","25-May-04",6,"Bleaching (% of population)",0,0,0,0,FALSE,0,301.7,301.08,299.42,292.99,304.98,2.62,3,0.55,1.02,0,-3.88,3.19,6,5.55,24,8,0,3.52,20.37,3.04,-1.38,2.62,-9.46,2.51,-3.03,2,1.62,7,1,0,1.25,10.6,0.43,"ERG053",204,0.012929293,108.4216667,15.97222222,6.887159,0.38189095,35.20052,1427.7035,0.000376827,"Not Bleached"
"108.26.45E.15.58.03N","CLC03","Pacific","Vietnam","Quangham","Culaocham","2004","25-May-04",3,"Bleaching (% of population)",1,1,4,0,FALSE,1.5,301.81,301.11,299.46,293.04,305.35,2.65,3,0.55,1.05,0,-3.31,3.41,6,5.41,25,8,0,3.65,20.25,3.17,-1.48,2.65,-9.55,2.75,-3.12,2,1.67,7,1,0,1.28,9.05,0.48,"ERG053",204,0.012929293,108.4458333,15.9675,7.643648,-0.0556987,36.170834,1427.7035,0.000376827,"Bleached"
"108.26.45E.15.58.03N","CLC03","Pacific","Vietnam","Quangham","Culaocham","2004","25-May-04",9,"Bleaching (% of population)",4,4,0,2,FALSE,2.5,301.81,301.11,299.46,293.04,305.35,2.65,3,0.55,1.05,0,-3.31,3.41,6,5.41,25,8,0,3.65,20.25,3.17,-1.48,2.65,-9.55,2.75,-3.12,2,1.67,7,1,0,1.28,9.05,0.48,"ERG053",204,0.012929293,108.4458333,15.9675,9.029959,0.62864524,35.339516,1427.7035,0.000376827,"Bleached"
"108.26.55E.15.58.46N","CLC02","Pacific","Vietnam","Quangnam","Culaocham","2004","2-Jun-04",5,"Bleaching (% of population)",10,3,5,0,FALSE,4.5,302.19,302.1,299.46,293.04,305.35,2.65,3,0.89,1.05,0,-3.31,3.41,6,5.41,25,8,0,3.65,20.25,3.17,-0.49,2.65,-9.55,2.75,-3.12,2,1.67,7,1,0,1.28,9.05,0.48,"ERG053",204,0.012929293,108.4486111,15.97944444,6.75968,0.003028678,36.29645,1176.153,0.000376676,"Bleached"
"108.26.55E.15.58.46N","CLC02","Pacific","Vietnam","Quangnam","Culaocham","2004","2-Jun-04",8.5,"Bleaching (% of population)",5,4,5,4,FALSE,4.5,302.19,302.1,299.46,293.04,305.35,2.65,3,0.89,1.05,0,-3.31,3.41,6,5.41,25,8,0,3.65,20.25,3.17,-0.49,2.65,-9.55,2.75,-3.12,2,1.67,7,1,0,1.28,9.05,0.48,"ERG053",204,0.012929293,108.4486111,15.97944444,10.618126,0.5765918,35.56376,1176.153,0.000376676,"Bleached"
"108.28.17E.15.55.54N","CLC05","Pacific","Vietnam","Quangnam","Culaocham","2004","29-May-04",3.8,"Bleaching (% of population)",0,0,0,0,FALSE,0,299.51,301.57,299.45,293.23,305.26,2.62,3,1.88,2.61,0,-6,6.01,22,3.99,29,21,1.91,13.91,51.2,13.12,1.87,2.62,-6.46,5.55,-0.24,22,4.15,29,20,1.91,12.26,46.34,11.62,"ERG053",204,0.012929293,108.4713889,15.93166667,13.876981,0.41171974,35.8243,1198.3793,0.000376827,"Not Bleached"
"108.28.17E.15.55.54N","CLC05","Pacific","Vietnam","Quangnam","Culaocham","2004","29-May-04",7.5,"Bleaching (% of population)",0,2,0,0,FALSE,0.5,299.51,301.57,299.45,293.23,305.26,2.62,3,1.88,2.61,0,-6,6.01,22,3.99,29,21,1.91,13.91,51.2,13.12,1.87,2.62,-6.46,5.55,-0.24,22,4.15,29,20,1.91,12.26,46.34,11.62,"ERG053",204,0.012929293,108.4713889,15.93166667,11.179716,0.263985,35.8243,1198.3793,0.000376827,"Bleached"
"108.28.28E.15.56.01N","CLC04","Pacific","Vietnam","Quangnam","Culaocham","2004","22-May-04",4.5,"Bleaching (% of population)",0,1,7,1,FALSE,2.25,299.57,301.61,299.45,293.23,305.26,2.62,3,1.91,2.61,0,-6,6.01,21,3.99,29,21,0,13.91,51.2,13.12,1.91,2.62,-6.46,5.55,-0.24,21,4.15,29,20,0,12.26,46.34,11.62,"ERG053",204,0.012929293,108.4744444,15.93361111,12.7083645,0.12319288,36.130775,1317.6556,0.000376827,"Bleached"
"108.28.28E.15.56.01N","CLC04","Pacific","Vietnam","Quangnam","Culaocham","2004","22-May-04",11,"Bleaching (% of population)",1,3,0,1,FALSE,1.25,299.57,301.61,299.45,293.23,305.26,2.62,3,1.91,2.61,0,-6,6.01,21,3.99,29,21,0,13.91,51.2,13.12,1.91,2.62,-6.46,5.55,-0.24,21,4.15,29,20,0,12.26,46.34,11.62,"ERG053",204,0.012929293,108.4744444,15.93361111,7.511732,0.35600734,35.958374,1317.6556,0.000376827,"Bleached"
"108.28.41E.15.56.44N","CLC06","Pacific","Vietnam","Quangnam","Culaocham","2004","23-May-04",3.5,"Bleaching (% of population)",1,1,5,2,FALSE,2.25,299.57,301.61,299.45,293.23,305.26,2.62,3,1.91,2.61,0,-6,6.01,21,3.99,29,21,0,13.91,51.2,13.12,1.91,2.62,-6.46,5.55,-0.24,21,4.15,29,20,0,12.26,46.34,11.62,"ERG053",204,0.012929293,108.4780556,15.94555556,7.7025113,0.043400854,36.114815,1402.9264,0.000376827,"Bleached"
"108.28.41E.15.56.44N","CLC06","Pacific","Vietnam","Quangnam","Culaocham","2004","23-May-04",8.2,"Bleaching (% of population)",0,1,0,4,FALSE,1.25,299.57,301.61,299.45,293.23,305.26,2.62,3,1.91,2.61,0,-6,6.01,21,3.99,29,21,0,13.91,51.2,13.12,1.91,2.62,-6.46,5.55,-0.24,21,4.15,29,20,0,12.26,46.34,11.62,"ERG053",204,0.012929293,108.4780556,15.94555556,10.419812,0.055987366,36.290794,1402.9264,0.000376827,"Bleached"
"108.29.06E.15.57.47N","CLC08","Pacific","Vietnam","Quangnam","Culaocham","2004","23-May-04",3.3,"Bleaching (% of population)",0,0,0,0,FALSE,0,301.81,301.11,299.46,293.04,305.35,2.65,3,0.55,1.05,0,-3.31,3.41,6,5.41,25,8,0,3.65,20.25,3.17,-1.48,2.65,-9.55,2.75,-3.12,2,1.67,7,1,0,1.28,9.05,0.48,"ERG053",204,0.012929293,108.485,15.96305556,6.3812532,0.44795188,35.499203,1402.9264,0.000376827,"Not Bleached"
"108.29.06E.15.57.47N","CLC08","Pacific","Vietnam","Quangnam","Culaocham","2004","23-May-04",7.3,"Bleaching (% of population)",0,0,0,0,FALSE,0,301.81,301.11,299.46,293.04,305.35,2.65,3,0.55,1.05,0,-3.31,3.41,6,5.41,25,8,0,3.65,20.25,3.17,-1.48,2.65,-9.55,2.75,-3.12,2,1.67,7,1,0,1.28,9.05,0.48,"ERG053",204,0.012929293,108.485,15.96305556,3.9993641,0.2789217,35.783794,1402.9264,0.000376827,"Not Bleached"
"108.29.11E.15.56.44N","CLC07","Pacific","Vietnam","Quangnam","Culaocham","2004","29-May-04",7,"Bleaching (% of population)",4,1,0,0,FALSE,1.25,299.51,301.57,299.45,293.23,305.26,2.62,3,1.88,2.61,0,-6,6.01,22,3.99,29,21,1.91,13.91,51.2,13.12,1.87,2.62,-6.46,5.55,-0.24,22,4.15,29,20,1.91,12.26,46.34,11.62,"ERG053",204,0.012929293,108.4863889,15.94555556,13.44124,0.0826932,35.33511,1198.3793,0.000376827,"Bleached"
"108.29.22E.15.57.36N","CLC09","Pacific","Vietnam","Quangnam","Culaocham","2004","26-May-04",3.3,"Bleaching (% of population)",5,0,2,4,FALSE,2.75,302.17,301.28,299.47,293.1,305.39,2.69,3,0.27,1.07,0,-3.35,3.65,6,6.24,30,9,0,3.91,20.45,3.36,-1.39,2.69,-9.56,2.72,-3.19,2,1.71,7,1,0,1.33,8.75,0.53,"ERG053",204,0.012929293,108.4894444,15.96,8.937215,0.35174116,35.41221,1335.5253,0.000376827,"Bleached"
"108.29.22E.15.57.36N","CLC09","Pacific","Vietnam","Quangnam","Culaocham","2004","26-May-04",6.7,"Bleaching (% of population)",0,0,0,0,FALSE,0,302.17,301.28,299.47,293.1,305.39,2.69,3,0.27,1.07,0,-3.35,3.65,6,6.24,30,9,0,3.91,20.45,3.36,-1.39,2.69,-9.56,2.72,-3.19,2,1.71,7,1,0,1.33,8.75,0.53,"ERG053",204,0.012929293,108.4894444,15.96,9.417225,0.27912822,35.506348,1335.5253,0.000376827,"Not Bleached"
"108.29.29E.15.58.17N","CLC14","Pacific","Vietnam","Quangnam","Culaocham","2004","26-May-04",6.7,"Bleaching (% of population)",1,0,1,1,FALSE,0.75,302.17,301.28,299.47,293.1,305.39,2.69,3,0.27,1.07,0,-3.35,3.65,6,6.24,30,9,0,3.91,20.45,3.36,-1.39,2.69,-9.56,2.72,-3.19,2,1.71,7,1,0,1.33,8.75,0.53,"ERG053",204,0.012929293,108.4913889,15.97138889,3.4301817,0.8487953,34.809193,1335.5253,0.000376827,"Bleached"
"108.30.02E.15.58.38N","CLC15","Pacific","Vietnam","Quangnam","Culaocham","2004","1-Jun-04",10,"Bleaching (% of population)",2,2,3,1,FALSE,2,302.17,301.28,299.47,293.1,305.39,2.69,3,0.27,1.07,0,-3.35,3.65,6,6.24,30,9,0,3.91,20.45,3.36,-1.39,2.69,-9.56,2.72,-3.19,2,1.71,7,1,0,1.33,8.75,0.53,"ERG053",204,0.012929293,108.5005556,15.97722222,10.224741,-0.04323638,36.056984,1130.7579,0.000376676,"Bleached"
"108.30.55E.15.56.17N","CLC10","Pacific","Vietnam","Quangnam","Culaocham","2004","31-May-04",5.3,"Bleaching (% of population)",0,0,0,0,FALSE,0,302.13,301.6,299.47,293.23,305.1,2.67,3,0.64,1.06,0,-3.18,3.19,9,5.57,26,8,1.02,3.67,18.22,3.19,-1.06,2.67,-9.43,2.42,-3.19,1,1.33,5,1,0,1.08,6,0.41,"ERG053",204,0.012929293,108.5152778,15.93805556,8.536109,-0.04323638,35.877995,1049.7295,0.000376827,"Not Bleached"
"108.31.43E.15.55.48N","CLC11","Pacific","Vietnam","Quangnam","Culaocham","2004","24-May-04",2,"Bleaching (% of population)",0,0,0,0,FALSE,0,301.91,301.61,299.47,293.23,305.1,2.67,3,1.02,1.06,0,-3.18,3.19,8,5.57,26,8,0,3.67,18.22,3.19,-1.06,2.67,-9.43,2.42,-3.19,1,1.33,5,1,0,1.08,6,0.41,"ERG053",204,0.012929293,108.5286111,15.93,4.6364655,-0.09986948,35.96295,1407.7773,0.000376827,"Not Bleached"
